{"last_updated": 1712614590, "ttl": 23, "data": {"stations": [{"station_id": "2", "name": "002 - Retiro I", "physical_configuration": "SMARTLITMAPFRAME", "lat": -34.59242413, "lon": -58.37470989, "altitude": 0.0, "address": "AV. Dr. Jos\u00e9 Mar\u00eda Ramos Mej\u00eda 1300", "post_code": "11111", "capacity": 40, "is_charging_station": false, "rental_methods": ["KEY", "TRANSITCARD", "PHONE"], "groups": ["RETIRO"], "obcn": "", "nearby_distance": 1000.0, "_ride_code_support": true, "rental_uris": {}}, {"station_id": "3", "name": "003 - ADUANA", "physical_configuration": "SMARTLITMAPFRAME", "lat": -34.61220714255728, "lon": -58.36912906378899, "altitude": 0.0, "address": "Av. Paseo Col\u00f3n 380", "cross_street": ".", "post_code": "C1063", "capacity": 28, "is_charging_station": false, "rental_methods": ["KEY", "TRANSITCARD", "PHONE"], "groups": ["MONSERRAT"], "nearby_distance": 1000.0, "_ride_code_support": true, "rental_uris": {}}, {"station_id": "4", "name": "004 - Plaza Roma", "physical_configuration": "SMARTLITMAPFRAME", "lat": -34.6030082348981, "lon": -58.36885646243477, "altitude": 0.0, "address": "Av. Corrientes 100", "post_code": "11111", "capacity": 20, "is_charging_station": false, "rental_methods": ["KEY", "TRANSITCARD", "PHONE"], "groups": ["SAN NICOLAS"], "obcn": "", "nearby_distance": 1000.0, "_ride_code_support": true, "rental_uris": {}}, {"station_id": "5", "name": "005 - Plaza Italia", "physical_configuration": "SMARTLITMAPFRAME", "lat": -34.5805497, "lon": -58.4209542, "altitude": 0.0, "address": "Av. Sarmiento 2601", "post_code": "1111", "capacity": 41, "is_charging_station": false, "rental_methods": ["KEY", "TRANSITCARD", "PHONE"], "groups": ["PALERMO"], "obcn": "", "nearby_distance": 1000.0, "_ride_code_support": true, "rental_uris": {}}, {"station_id": "6", "name": "006 - Parque Lezama", "physical_configuration": "SMARTLITMAPFRAME", "lat": -34.628526, "lon": -58.369758, "altitude": 0.0, "address": "Avenida Martin Garcia, 295", "post_code": "1111", "capacity": 20, "is_charging_station": false, "rental_methods": ["KEY", "TRANSITCARD", "PHONE"], "groups": ["SAN TELMO"], "obcn": "", "nearby_distance": 1000.0, "_ride_code_support": true, "rental_uris": {}}, {"station_id": "7", "name": "007 - OBELISCO", "physical_configuration": "SMARTLITMAPFRAME", "lat": -34.606498, "lon": -58.381098, "altitude": 0.0, "address": "CARLOS PELEGRINI 215", "cross_street": "CARLOS PELEGRINI 215", "post_code": "11111", "capacity": 24, "is_charging_station": false, "rental_methods": ["KEY", "TRANSITCARD", "PHONE"], "groups": ["SAN NICOLAS"], "nearby_distance": 1000.0, "_ride_code_support": true, "rental_uris": {}}, {"station_id": "8", "name": "008 - Congreso", "physical_configuration": "SMARTLITMAPFRAME", "lat": -34.6094218, "lon": -58.3893364, "altitude": 0.0, "address": "Cevallos, Virrey& Yrigoyen, Hipolito Av.", "post_code": "11111", "capacity": 24, "is_charging_station": false, "rental_methods": ["KEY", "TRANSITCARD", "PHONE"], "groups": ["SAN NICOLAS"], "obcn": "", "nearby_distance": 1000.0, "_ride_code_support": true, "rental_uris": {}}, {"station_id": "9", "name": "009 - Parque Las Heras", "physical_configuration": "SMARTLITMAPFRAME", "lat": -34.585443, "lon": -58.407741, "altitude": 0.0, "address": "2300 Diaz, Cnel. Av. & French", "post_code": "11111", "capacity": 23, "is_charging_station": false, "rental_methods": ["KEY", "TRANSITCARD", "PHONE"], "groups": ["PALERMO"], "obcn": "", "nearby_distance": 1000.0, "_ride_code_support": true, "rental_uris": {}}, {"station_id": "12", "name": "012 - Plaza Vicente Lopez", "physical_configuration": "SMARTLITMAPFRAME", "lat": -34.5927096, "lon": -58.388807, "altitude": 0.0, "address": "Parana & Juncal", "post_code": "11111", "capacity": 16, "is_charging_station": false, "rental_methods": ["KEY", "TRANSITCARD", "PHONE"], "groups": ["RECOLETA"], "obcn": "", "nearby_distance": 1000.0, "_ride_code_support": true, "rental_uris": {}}, {"station_id": "13", "name": "013 - ONCE", "physical_configuration": "SMARTLITMAPFRAME", "lat": -34.61009, "lon": -58.406, "altitude": 0.0, "address": "Av. Pueyrredon & Av. Rivadavia", "cross_street": "Av. Pueyrredon & Av. Rivadavia", "post_code": "1111", "capacity": 30, "is_charging_station": false, "rental_methods": ["KEY", "TRANSITCARD", "PHONE"], "groups": ["BALVANERA"], "nearby_distance": 1000.0, "_ride_code_support": true, "rental_uris": {}}, {"station_id": "14", "name": "014 - Pacifico", "physical_configuration": "SMARTLITMAPFRAME", "lat": -34.577424, "lon": -58.426387, "altitude": 0.0, "address": "Santa Fe Av. & Bullrich, Int. Av.", "post_code": "11111", "capacity": 30, "is_charging_station": false, "rental_methods": ["KEY", "TRANSITCARD", "PHONE"], "groups": ["PALERMO"], "obcn": "", "nearby_distance": 1000.0, "_ride_code_support": true, "rental_uris": {}}, {"station_id": "17", "name": "017 - Plaza Almagro", "physical_configuration": "SMARTLITMAPFRAME", "lat": -34.6064101, "lon": -58.4187306, "altitude": 0.0, "address": "441 Bulnes & Peron, Juan Domingo, Tte. General", "post_code": "11111", "capacity": 19, "is_charging_station": false, "rental_methods": ["KEY", "TRANSITCARD", "PHONE"], "groups": ["ALMAGRO"], "obcn": "", "nearby_distance": 1000.0, "_ride_code_support": true, "rental_uris": {}}, {"station_id": "21", "name": "021 - Parque Patricios", "physical_configuration": "SMARTLITMAPFRAME", "lat": -34.640111, "lon": -58.406432, "altitude": 0.0, "address": "Iguazu & Uspallata", "post_code": "1111", "capacity": 24, "is_charging_station": false, "rental_methods": ["KEY", "TRANSITCARD", "PHONE"], "groups": ["PARQUE PATRICIOS"], "obcn": "", "nearby_distance": 1000.0, "_ride_code_support": true, "rental_uris": {}}, {"station_id": "22", "name": "022 - Arenales", "physical_configuration": "SMARTLITMAPFRAME", "lat": -34.5938629, "lon": -58.3825498, "altitude": 0.0, "address": "Cerrito & Arenales", "cross_street": "Cerrito & Arenales", "post_code": "11111", "capacity": 19, "is_charging_station": false, "rental_methods": ["KEY", "TRANSITCARD", "PHONE"], "groups": ["RETIRO"], "nearby_distance": 1000.0, "_ride_code_support": true, "rental_uris": {}}, {"station_id": "23", "name": "023 - Suipacha", "physical_configuration": "SMARTLITMAPFRAME", "lat": -34.600139, "lon": -58.379836, "altitude": 0.0, "address": "Suipacha & Viamonte", "post_code": "11111", "capacity": 12, "is_charging_station": false, "rental_methods": ["KEY", "TRANSITCARD", "PHONE"], "groups": ["SAN NICOLAS"], "obcn": "", "nearby_distance": 1000.0, "_ride_code_support": true, "rental_uris": {}}, {"station_id": "24", "name": "024 - ALSINA", "physical_configuration": "SMARTLITMAPFRAME", "lat": -34.610583, "lon": -58.3808943, "altitude": 0.0, "address": "Adolfo Alsina& Bernardo De Irigoyen", "cross_street": "Adolfo Alsina& Bernardo De Irigoyen", "post_code": "11111", "capacity": 18, "is_charging_station": false, "rental_methods": ["KEY", "TRANSITCARD", "PHONE"], "groups": ["MONSERRAT"], "nearby_distance": 1609.34, "_ride_code_support": true, "rental_uris": {}}, {"station_id": "25", "name": "025 - Plaza Guemes", "physical_configuration": "SMARTLITMAPFRAME", "lat": -34.5894269, "lon": -58.4161178, "altitude": 0.0, "address": "Salguero, Jeronimo & Mansilla, Lucio Norberto, General", "post_code": "11111", "capacity": 30, "is_charging_station": false, "rental_methods": ["KEY", "TRANSITCARD", "PHONE"], "groups": ["PALERMO"], "obcn": "", "nearby_distance": 1000.0, "_ride_code_support": true, "rental_uris": {}}, {"station_id": "26", "name": "026 - JUANA MANSO I", "physical_configuration": "SMARTLITMAPFRAME", "lat": -34.600752, "lon": -58.3638723, "altitude": 0.0, "address": "Manso Juana & De La Barra, Emma", "post_code": "11111", "capacity": 30, "is_charging_station": false, "rental_methods": ["KEY", "TRANSITCARD", "PHONE"], "groups": ["PUERTO MADERO"], "obcn": "", "nearby_distance": 1609.34, "_ride_code_support": true, "rental_uris": {}}, {"station_id": "27", "name": "027 - Montevideo", "physical_configuration": "SMARTLITMAPFRAME", "lat": -34.599068, "lon": -58.3900887, "altitude": 0.0, "address": "Cordoba Av. & Montevideo", "post_code": "1111", "capacity": 20, "is_charging_station": false, "rental_methods": ["KEY", "TRANSITCARD", "PHONE"], "groups": ["SAN NICOLAS"], "obcn": "", "nearby_distance": 1000.0, "_ride_code_support": true, "rental_uris": {}}, {"station_id": "29", "name": "029 - Parque Centenario", "physical_configuration": "SMARTLITMAPFRAME", "lat": -34.6079414, "lon": -58.4335573, "altitude": 0.0, "address": "Av. Patricias Argentinas & Estivao", "post_code": "11111", "capacity": 30, "is_charging_station": false, "rental_methods": ["KEY", "TRANSITCARD", "PHONE"], "groups": ["CABALLITO"], "obcn": "", "nearby_distance": 1000.0, "_ride_code_support": true, "rental_uris": {}}, {"station_id": "32", "name": "032 - Catedral", "physical_configuration": "SMARTLITMAPFRAME", "lat": -34.60674458045258, "lon": -58.37365550287732, "altitude": 0.0, "address": "Bartolom\u00e9 Mitre & San Mart\u00edn", "post_code": "11111", "capacity": 18, "is_charging_station": false, "rental_methods": ["KEY", "TRANSITCARD", "PHONE"], "groups": ["SAN NICOLAS"], "obcn": "", "nearby_distance": 1000.0, "_ride_code_support": true, "rental_uris": {}}, {"station_id": "33", "name": "033 - Facultad de Medicina", "physical_configuration": "SMARTLITMAPFRAME", "lat": -34.5970909, "lon": -58.3989807, "altitude": 0.0, "address": "Pres. Jos\u00e9 Evaristo Uriburu 987", "cross_street": "Uriburu Jose E., Pres. & Alvear, Marcelo T. De", "post_code": "11111", "capacity": 20, "is_charging_station": false, "rental_methods": ["KEY", "TRANSITCARD", "PHONE"], "groups": ["RECOLETA"], "obcn": "", "nearby_distance": 1000.0, "_ride_code_support": true, "rental_uris": {}}, {"station_id": "35", "name": "035 - INGENIERO BUTTY", "physical_configuration": "SMARTLITMAPFRAME", "lat": -34.5964246, "lon": -58.371847, "altitude": 0.0, "address": "Ing. E. Butty 291", "cross_street": "Ing. E. Butty 291 &  Av Leandro N.  Alem", "post_code": "11111", "capacity": 32, "is_charging_station": false, "rental_methods": ["KEY", "TRANSITCARD", "PHONE"], "groups": ["RETIRO"], "nearby_distance": 1000.0, "_ride_code_support": true, "rental_uris": {}}, {"station_id": "36", "name": "036 - MAIP\u00da", "physical_configuration": "SMARTLITMAPFRAME", "lat": -34.6010599, "lon": -58.3745346, "altitude": 0.0, "address": "Tucum\u00e1n 536", "cross_street": "Tucum\u00e1n 536", "post_code": "C1049", "capacity": 12, "is_charging_station": false, "rental_methods": ["KEY", "TRANSITCARD", "PHONE"], "groups": ["SAN NICOLAS"], "nearby_distance": 1000.0, "_ride_code_support": true, "rental_uris": {}}, {"station_id": "38", "name": "038 - Plaza Libertad", "physical_configuration": "SMARTLITMAPFRAME", "lat": -34.5970497, "lon": -58.3828403, "altitude": 0.0, "address": "Cerrito 990 y Av. Marcelo T. De Alvear", "post_code": "11111", "capacity": 20, "is_charging_station": false, "rental_methods": ["KEY", "TRANSITCARD", "PHONE"], "groups": ["RETIRO"], "obcn": "", "nearby_distance": 1609.34, "_ride_code_support": true, "rental_uris": {}}, {"station_id": "41", "name": "041 - PARQUE PATRICIOS II", "physical_configuration": "SMARTLITMAPFRAME", "lat": -34.6371232, "lon": -58.4058883, "altitude": 0.0, "address": "Av Caseros 3015", "cross_street": "Urquiza, Gral. & Rondeau", "post_code": "1111", "capacity": 20, "is_charging_station": false, "rental_methods": ["KEY", "TRANSITCARD", "PHONE"], "groups": ["PARQUE PATRICIOS"], "nearby_distance": 1000.0, "_ride_code_support": true, "rental_uris": {}}, {"station_id": "43", "name": "334 - CENTRO DE EXPOSICIONES", "physical_configuration": "SMARTLITMAPFRAME", "lat": -34.584018, "lon": -58.389921, "altitude": 0.0, "address": "2133 Figueroa Alcorta", "post_code": "1111", "capacity": 28, "is_charging_station": false, "rental_methods": ["KEY", "TRANSITCARD", "PHONE"], "groups": ["RECOLETA"], "nearby_distance": 1000.0, "_ride_code_support": true, "rental_uris": {}}, {"station_id": "45", "name": "045 - Uruguay", "physical_configuration": "SMARTLITMAPFRAME", "lat": -34.6018635, "lon": -58.3866934, "altitude": 0.0, "address": "561 Uruguay & Av. Tucuman", "post_code": "111", "capacity": 20, "is_charging_station": false, "rental_methods": ["KEY", "TRANSITCARD", "PHONE"], "groups": ["SAN NICOLAS"], "obcn": "", "nearby_distance": 1000.0, "_ride_code_support": true, "rental_uris": {}}, {"station_id": "46", "name": "046 - Chile", "physical_configuration": "SMARTLITMAPFRAME", "lat": -34.6163729, "lon": -58.37436969999999, "altitude": 0.0, "address": "Per\u00fa 718", "post_code": "C1068", "capacity": 18, "is_charging_station": false, "rental_methods": ["KEY", "TRANSITCARD", "PHONE"], "groups": ["SAN TELMO"], "obcn": "", "nearby_distance": 1000.0, "_ride_code_support": true, "rental_uris": {}}, {"station_id": "48", "name": "034 - Colonia Express", "physical_configuration": "SMARTLITMAPFRAME", "lat": -34.6236397, "lon": -58.3632448, "altitude": 0.0, "address": "Elvira Rawson de Dellepiane 150", "cross_street": "paseo del bajo", "post_code": "C1107", "capacity": 16, "is_charging_station": false, "rental_methods": ["KEY", "TRANSITCARD", "PHONE"], "groups": ["PUERTO MADERO"], "nearby_distance": 1000.0, "_ride_code_support": true, "rental_uris": {}}, {"station_id": "49", "name": "049 - 33 Orientales", "physical_configuration": "SMARTLITMAPFRAME", "lat": -34.6290527, "lon": -58.422611, "altitude": 0.0, "address": "Constitucion & Treinta Y Tres Orientales", "post_code": "11111", "capacity": 16, "is_charging_station": false, "rental_methods": ["KEY", "TRANSITCARD", "PHONE"], "groups": ["BOEDO"], "obcn": "", "nearby_distance": 1000.0, "_ride_code_support": true, "rental_uris": {}}, {"station_id": "50", "name": "050 - Hospital Rivadavia", "physical_configuration": "SMARTLITMAPFRAME", "lat": -34.5837348, "lon": -58.4010798, "altitude": 0.0, "address": "2516 Pereyra Lucena", "cross_street": "Pereyra Lucena & Av. General Las Heras", "post_code": "11111", "capacity": 20, "is_charging_station": false, "rental_methods": ["KEY", "TRANSITCARD", "PHONE"], "groups": ["PALERMO"], "nearby_distance": 1000.0, "_ride_code_support": true, "rental_uris": {}}, {"station_id": "51", "name": "051 - TUCUMAN", "physical_configuration": "SMARTLITMAPFRAME", "lat": -34.6014776, "lon": -58.3821261, "altitude": 0.0, "address": "Tucuman & 9 De Julio Av.", "cross_street": "Tucuman & 9 De Julio Av.", "post_code": "1111", "capacity": 12, "is_charging_station": false, "rental_methods": ["KEY", "TRANSITCARD", "PHONE"], "groups": ["SAN NICOLAS"], "nearby_distance": 1000.0, "_ride_code_support": true, "rental_uris": {}}, {"station_id": "54", "name": "054 - Acu\u00f1a de Figueroa", "physical_configuration": "SMARTLITMAPFRAME", "lat": -34.5982097, "lon": -58.4220694, "altitude": 0.0, "address": "Lavalle 4015", "cross_street": "Acu\u00f1a de Figueroa y Lavalle", "post_code": "C1190", "capacity": 20, "is_charging_station": false, "rental_methods": ["KEY", "TRANSITCARD", "PHONE"], "groups": ["ALMAGRO"], "obcn": "", "nearby_distance": 1000.0, "_ride_code_support": true, "rental_uris": {}}, {"station_id": "56", "name": "056 - Plaza Palermo Viejo", "physical_configuration": "SMARTLITMAPFRAME", "lat": -34.588567, "lon": -58.425999, "altitude": 0.0, "address": "Costa Rica & Armenia", "post_code": "11111", "capacity": 20, "is_charging_station": false, "rental_methods": ["KEY", "TRANSITCARD", "PHONE"], "groups": ["PALERMO"], "obcn": "", "nearby_distance": 1000.0, "_ride_code_support": true, "rental_uris": {}}, {"station_id": "57", "name": "057 - BELGRANO", "physical_configuration": "SMARTLITMAPFRAME", "lat": -34.61324972988651, "lon": -58.370645128905494, "altitude": 0.0, "address": "Balcarce 482", "cross_street": ".", "post_code": "C1064", "capacity": 11, "is_charging_station": false, "rental_methods": ["KEY", "TRANSITCARD", "PHONE"], "groups": ["MONSERRAT"], "nearby_distance": 1000.0, "_ride_code_support": true, "rental_uris": {}}, {"station_id": "58", "name": "058 - Ministro Carranza", "physical_configuration": "SMARTLITMAPFRAME", "lat": -34.5752773, "lon": -58.4346883, "altitude": 0.0, "address": "Santa Fe Av. & Dorrego", "post_code": "11111", "capacity": 20, "is_charging_station": false, "rental_methods": ["KEY", "TRANSITCARD", "PHONE"], "groups": ["PALERMO"], "obcn": "", "nearby_distance": 1000.0, "_ride_code_support": true, "rental_uris": {}}, {"station_id": "59", "name": "018 - Independencia", "physical_configuration": "SMARTLITMAPFRAME", "lat": -34.617654, "lon": -58.380565, "altitude": 0.0, "address": "Idependencia y Bernardo de Irigoyen", "post_code": "11111", "capacity": 19, "is_charging_station": false, "rental_methods": ["KEY", "TRANSITCARD", "PHONE"], "groups": ["MONSERRAT"], "nearby_distance": 1609.34, "_ride_code_support": true, "rental_uris": {}}, {"station_id": "60", "name": "060 - 25 De Mayo", "physical_configuration": "SMARTLITMAPFRAME", "lat": -34.6016509, "lon": -58.371079, "altitude": 0.0, "address": "527 25 De Mayo", "cross_street": "25 De Mayo & Lavalle", "post_code": "11111", "capacity": 20, "is_charging_station": false, "rental_methods": ["KEY", "TRANSITCARD", "PHONE"], "groups": ["SAN NICOLAS"], "nearby_distance": 1000.0, "_ride_code_support": true, "rental_uris": {}}, {"station_id": "61", "name": "098 - BENITO JUAREZ", "physical_configuration": "SMARTLITMAPFRAME", "lat": -34.6189273, "lon": -58.5051769, "altitude": 0.0, "address": " Benito Juarez 2231", "post_code": "C1417", "capacity": 12, "is_charging_station": false, "rental_methods": ["KEY", "TRANSITCARD", "PHONE"], "groups": ["MONTE CASTRO"], "obcn": "", "nearby_distance": 1000.0, "_ride_code_support": true, "rental_uris": {}}, {"station_id": "63", "name": "063 - Reconquista", "physical_configuration": "SMARTLITMAPFRAME", "lat": -34.59977772506695, "lon": -58.37468663054962, "altitude": 0.0, "address": "Viamonte 555", "post_code": "C1053", "capacity": 26, "is_charging_station": false, "rental_methods": ["KEY", "TRANSITCARD", "PHONE"], "groups": ["SAN NICOLAS"], "obcn": "", "nearby_distance": 1000.0, "_ride_code_support": true, "rental_uris": {}}, {"station_id": "64", "name": "064 - RIOBAMBA", "physical_configuration": "SMARTLITMAPFRAME", "lat": -34.5936508, "lon": -58.3941087, "altitude": 0.0, "address": "Riobamba 1264 & Juncal", "cross_street": "Riobamba 1264 & Juncal", "post_code": "11111", "capacity": 20, "is_charging_station": false, "rental_methods": ["KEY", "TRANSITCARD", "PHONE"], "groups": ["RECOLETA"], "nearby_distance": 1000.0, "_ride_code_support": true, "rental_uris": {}}, {"station_id": "65", "name": "065 - Juli\u00e1n \u00c1lvarez", "physical_configuration": "SMARTLITMAPFRAME", "lat": -34.5873124, "lon": -58.4157873, "altitude": 0.0, "address": "3822 Guemes", "cross_street": "Guemes & Julian Alvarez", "post_code": "11111", "capacity": 20, "is_charging_station": false, "rental_methods": ["KEY", "TRANSITCARD", "PHONE"], "groups": ["PALERMO"], "nearby_distance": 1000.0, "_ride_code_support": true, "rental_uris": {}}, {"station_id": "66", "name": "066 - Billinghurst", "physical_configuration": "SMARTLITMAPFRAME", "lat": -34.5945475, "lon": -58.4138713, "altitude": 0.0, "address": "3508 Carcova", "cross_street": "De La Carcova & Soler", "post_code": "11111", "capacity": 19, "is_charging_station": false, "rental_methods": ["KEY", "TRANSITCARD", "PHONE"], "groups": ["RECOLETA"], "nearby_distance": 1000.0, "_ride_code_support": true, "rental_uris": {}}, {"station_id": "68", "name": "105 - PARQUE SAAVEDRA", "physical_configuration": "SMARTLITMAPFRAME", "lat": -34.552148, "lon": -58.480464, "altitude": 0.0, "address": "Garc\u00eda del R\u00edo 3590", "cross_street": "Garc\u00eda del R\u00edo 3590", "post_code": "11111", "capacity": 16, "is_charging_station": false, "rental_methods": ["KEY", "TRANSITCARD", "PHONE"], "groups": ["SAAVEDRA"], "obcn": "-", "nearby_distance": 1000.0, "_ride_code_support": true, "rental_uris": {}}, {"station_id": "69", "name": "069 - Ecuador", "physical_configuration": "SMARTLITMAPFRAME", "lat": -34.5961006, "lon": -58.4046092, "altitude": 0.0, "address": "1226 Ecuador & Mansilla, Lucio Norberto, General", "post_code": "111", "capacity": 16, "is_charging_station": false, "rental_methods": ["KEY", "TRANSITCARD", "PHONE"], "groups": ["RECOLETA"], "obcn": "", "nearby_distance": 1000.0, "_ride_code_support": true, "rental_uris": {}}, {"station_id": "70", "name": "070 - ARAOZ", "physical_configuration": "SMARTLITMAPFRAME", "lat": -34.5926862, "lon": -58.4260597, "altitude": 0.0, "address": "1413 Araoz & Gorriti CABA", "post_code": "1111", "capacity": 24, "is_charging_station": false, "rental_methods": ["KEY", "TRANSITCARD", "PHONE"], "groups": ["PALERMO"], "nearby_distance": 1000.0, "_ride_code_support": true, "rental_uris": {}}, {"station_id": "71", "name": "071 - CERRITO", "physical_configuration": "SMARTLITMAPFRAME", "lat": -34.6026673, "lon": -58.3833559, "altitude": 0.0, "address": "Libertad & lavalle", "cross_street": "Av Pres. Roque Saenz Pe\u00f1a 1194", "post_code": "11111", "capacity": 28, "is_charging_station": false, "rental_methods": ["KEY", "TRANSITCARD", "PHONE"], "groups": ["SAN NICOLAS"], "nearby_distance": 1000.0, "_ride_code_support": true, "rental_uris": {}}, {"station_id": "73", "name": "073 - Ruy D\u00edaz de Guzm\u00e1n", "physical_configuration": "SMARTLITMAPFRAME", "lat": -34.6306814, "lon": -58.3718235, "altitude": 0.0, "address": "Avenida Martin Garcia y Ruy D\u00edaz de Guzm\u00e1n", "post_code": "1111111", "capacity": 20, "is_charging_station": false, "rental_methods": ["KEY", "TRANSITCARD", "PHONE"], "groups": ["BOCA"], "obcn": "", "nearby_distance": 1000.0, "_ride_code_support": true, "rental_uris": {}}, {"station_id": "74", "name": "074 - INSTITUTO LELOIR", "physical_configuration": "SMARTLITMAPFRAME", "lat": -34.60439, "lon": -58.43454, "altitude": 0.0, "address": "Juana De Ibarbourou & Av Patricias Argentinas", "post_code": "1111", "capacity": 30, "is_charging_station": false, "rental_methods": ["KEY", "TRANSITCARD", "PHONE"], "groups": ["CABALLITO"], "nearby_distance": 1000.0, "_ride_code_support": true, "rental_uris": {}}, {"station_id": "75", "name": "075 - Plaza Primero de Mayo", "physical_configuration": "SMARTLITMAPFRAME", "lat": -34.6122976, "lon": -58.3989871, "altitude": 0.0, "address": "238 Pichincha", "post_code": "11111", "capacity": 20, "is_charging_station": false, "rental_methods": ["KEY", "TRANSITCARD", "PHONE"], "groups": ["BALVANERA"], "obcn": "", "nearby_distance": 1000.0, "_ride_code_support": true, "rental_uris": {}}, {"station_id": "76", "name": "076 - Ayacucho", "physical_configuration": "SMARTLITMAPFRAME", "lat": -34.6074084, "lon": -58.3950548, "altitude": 0.0, "address": "Ayacucho &Peron, Juan Domingo, Tte. General", "post_code": "11111", "capacity": 20, "is_charging_station": false, "rental_methods": ["KEY", "TRANSITCARD", "PHONE"], "groups": ["BALVANERA"], "obcn": "", "nearby_distance": 1000.0, "_ride_code_support": true, "rental_uris": {}}, {"station_id": "77", "name": "109 - ESTACION PUEYRREDON", "physical_configuration": "SMARTLITMAPFRAME", "lat": -34.581135, "lon": -58.501487, "altitude": 0.0, "address": "Bolivia 5071", "cross_street": "Bolivia 5071", "post_code": "1111", "capacity": 16, "is_charging_station": false, "rental_methods": ["KEY", "TRANSITCARD", "PHONE"], "groups": ["VILLA PUYRREDON"], "nearby_distance": 1000.0, "_ride_code_support": true, "rental_uris": {}}, {"station_id": "79", "name": "079 - AZUCENA VILLAFLOR", "physical_configuration": "SMARTLITMAPFRAME", "lat": -34.61189, "lon": -58.36393, "altitude": 0.0, "address": "Villaflor, Azucena & Dealessi, Pierina", "cross_street": "Villaflor, Azucena & Dealessi, Pierina", "post_code": "C1107CID", "capacity": 30, "is_charging_station": false, "rental_methods": ["KEY", "TRANSITCARD", "PHONE"], "groups": ["PUERTO MADERO"], "nearby_distance": 1609.34, "_ride_code_support": true, "rental_uris": {}}, {"station_id": "80", "name": "080 - VALLE", "physical_configuration": "SMARTLITMAPFRAME", "lat": -34.6245807, "lon": -58.43412319999999, "altitude": 0.0, "address": "Valle 486", "post_code": "C1424", "capacity": 11, "is_charging_station": false, "rental_methods": ["KEY", "TRANSITCARD", "PHONE"], "groups": ["CABALLITO"], "nearby_distance": 1000.0, "_ride_code_support": true, "rental_uris": {}}, {"station_id": "82", "name": "082 - HOSPITAL ITALIANO", "physical_configuration": "SMARTLITMAPFRAME", "lat": -34.6078917, "lon": -58.4263947, "altitude": 0.0, "address": "394 Rawson & Potosi", "post_code": "11111", "capacity": 19, "is_charging_station": false, "rental_methods": ["KEY", "TRANSITCARD", "PHONE"], "groups": ["ALMAGRO"], "nearby_distance": 1000.0, "_ride_code_support": true, "rental_uris": {}}, {"station_id": "83", "name": "083 - Paran\u00e1", "physical_configuration": "SMARTLITMAPFRAME", "lat": -34.603269, "lon": -58.3893728, "altitude": 0.0, "address": "1590 Lavalle", "cross_street": "Lavalle & Montevideo", "post_code": "11111", "capacity": 28, "is_charging_station": false, "rental_methods": ["KEY", "TRANSITCARD", "PHONE"], "groups": ["SAN NICOLAS"], "nearby_distance": 1000.0, "_ride_code_support": true, "rental_uris": {}}, {"station_id": "85", "name": "085 - AGUERO", "physical_configuration": "SMARTLITMAPFRAME", "lat": -34.5948057, "lon": -58.4091784, "altitude": 0.0, "address": "Aguero & Mansilla, Lucio Norberto, General", "cross_street": "Aguero & Mansilla, Lucio Norberto, General", "post_code": "11111", "capacity": 20, "is_charging_station": false, "rental_methods": ["KEY", "TRANSITCARD", "PHONE"], "groups": ["RECOLETA"], "nearby_distance": 1000.0, "_ride_code_support": true, "rental_uris": {}}, {"station_id": "86", "name": "086 - SAAVEDRA", "physical_configuration": "SMARTLITMAPFRAME", "lat": -34.6212681, "lon": -58.4016808, "altitude": 0.0, "address": "1019 Saavedra", "cross_street": "1019 Saavedra & Calvo, Carlos", "post_code": "11111", "capacity": 20, "is_charging_station": false, "rental_methods": ["KEY", "TRANSITCARD", "PHONE"], "groups": ["SAN CRISTOBAL"], "nearby_distance": 1000.0, "_ride_code_support": true, "rental_uris": {}}, {"station_id": "87", "name": "087 - Guayaquil", "physical_configuration": "SMARTLITMAPFRAME", "lat": -34.619845, "lon": -58.4314942, "altitude": 0.0, "address": "Guayaquil & Doblas", "post_code": "1111", "capacity": 16, "is_charging_station": false, "rental_methods": ["KEY", "TRANSITCARD", "PHONE"], "groups": ["CABALLITO"], "obcn": "", "nearby_distance": 1000.0, "_ride_code_support": true, "rental_uris": {}}, {"station_id": "89", "name": "089 - Cabello", "physical_configuration": "SMARTLITMAPFRAME", "lat": -34.5825475, "lon": -58.4056671, "altitude": 0.0, "address": "3082 Cabello", "post_code": "1111", "capacity": 20, "is_charging_station": false, "rental_methods": ["KEY", "TRANSITCARD", "PHONE"], "groups": ["PALERMO"], "nearby_distance": 1000.0, "_ride_code_support": true, "rental_uris": {}}, {"station_id": "91", "name": "091 - Pasco", "physical_configuration": "SMARTLITMAPFRAME", "lat": -34.6174482, "lon": -58.397602, "altitude": 0.0, "address": "708 Pasco & Chile", "post_code": "1111", "capacity": 24, "is_charging_station": false, "rental_methods": ["KEY", "TRANSITCARD", "PHONE"], "groups": ["BALVANERA"], "obcn": "", "nearby_distance": 1000.0, "_ride_code_support": true, "rental_uris": {}}, {"station_id": "92", "name": "092 - Salcedo", "physical_configuration": "SMARTLITMAPFRAME", "lat": -34.6316444, "lon": -58.4053386, "altitude": 0.0, "address": "2908 Salcedo & Dean Funes", "post_code": "111", "capacity": 20, "is_charging_station": false, "rental_methods": ["KEY", "TRANSITCARD", "PHONE"], "groups": ["PARQUE PATRICIOS"], "obcn": "", "nearby_distance": 1000.0, "_ride_code_support": true, "rental_uris": {}}, {"station_id": "93", "name": "093 - CARLOS CALVO", "physical_configuration": "SMARTLITMAPFRAME", "lat": -34.620798, "lon": -58.3944635, "altitude": 0.0, "address": "Sarandi 1010", "cross_street": "1010 Sarandi & Calvo, Carlos", "post_code": "1111", "capacity": 20, "is_charging_station": false, "rental_methods": ["KEY", "TRANSITCARD", "PHONE"], "groups": ["SAN CRISTOBAL"], "nearby_distance": 1000.0, "_ride_code_support": true, "rental_uris": {}}, {"station_id": "94", "name": "094 - G\u00daZMAN", "physical_configuration": "SMARTLITMAPFRAME", "lat": -34.591511, "lon": -58.449652, "altitude": 0.0, "address": "Av Guzman 129 & Leiva", "post_code": "1111", "capacity": 30, "is_charging_station": false, "rental_methods": ["KEY", "TRANSITCARD", "PHONE"], "groups": ["ZONA 1"], "nearby_distance": 1000.0, "_ride_code_support": true, "rental_uris": {}}, {"station_id": "96", "name": "096 - Carlos Gardel", "physical_configuration": "SMARTLITMAPFRAME", "lat": -34.6027814, "lon": -58.4116586, "altitude": 0.0, "address": "3302 Guardia Vieja & Aguero", "post_code": "11111", "capacity": 16, "is_charging_station": false, "rental_methods": ["KEY", "TRANSITCARD", "PHONE"], "groups": ["BALVANERA"], "obcn": "", "nearby_distance": 1000.0, "_ride_code_support": true, "rental_uris": {}}, {"station_id": "98", "name": "037- Claudia P\u00eda Baudracco", "physical_configuration": "SMARTLITMAPFRAME", "lat": -34.6081643, "lon": -58.3779002, "altitude": 0.0, "address": "Esmeralda y Rivadavia", "post_code": "11111", "capacity": 16, "is_charging_station": false, "rental_methods": ["KEY", "TRANSITCARD", "PHONE"], "groups": ["MONSERRAT"], "obcn": "", "nearby_distance": 1609.34, "_ride_code_support": true, "rental_uris": {}}, {"station_id": "99", "name": "099 - Malabia", "physical_configuration": "SMARTLITMAPFRAME", "lat": -34.5960961, "lon": -58.435408, "altitude": 0.0, "address": "780 Malabia & Loyola", "post_code": "11111", "capacity": 20, "is_charging_station": false, "rental_methods": ["KEY", "TRANSITCARD", "PHONE"], "groups": ["VILLA CRESPO"], "obcn": "", "nearby_distance": 1000.0, "_ride_code_support": true, "rental_uris": {}}, {"station_id": "101", "name": "101 - Fitz Roy", "physical_configuration": "SMARTLITMAPFRAME", "lat": -34.5891857, "lon": -58.4424397, "altitude": 0.0, "address": "Fitz Roy  1092 & Loyola", "post_code": "11111", "capacity": 20, "is_charging_station": false, "rental_methods": ["KEY", "TRANSITCARD", "PHONE"], "groups": ["ZONA 1"], "obcn": "", "nearby_distance": 1000.0, "_ride_code_support": true, "rental_uris": {}}, {"station_id": "102", "name": "102 - ROSETI", "physical_configuration": "SMARTLITMAPFRAME", "lat": -34.5851209, "lon": -58.4492989, "altitude": 0.0, "address": "ROSETI 390", "post_code": "C1427", "capacity": 20, "is_charging_station": false, "rental_methods": ["KEY", "TRANSITCARD", "PHONE"], "groups": ["ZONA 1"], "nearby_distance": 1000.0, "_ride_code_support": true, "rental_uris": {}}, {"station_id": "104", "name": "104 - Federico Lacroze", "physical_configuration": "SMARTLITMAPFRAME", "lat": -34.587617, "lon": -58.455212, "altitude": 0.0, "address": "Av. Guzman 1100 & Av. Corrientes", "post_code": "111111", "capacity": 30, "is_charging_station": false, "rental_methods": ["KEY", "TRANSITCARD", "PHONE"], "groups": ["ZONA 1"], "obcn": "", "nearby_distance": 1000.0, "_ride_code_support": true, "rental_uris": {}}, {"station_id": "107", "name": "107 - HOSPITAL GARRAHAN", "physical_configuration": "SMARTLITMAPFRAME", "lat": -34.63037718, "lon": -58.395844, "altitude": 0.0, "address": "Brasil 2290", "cross_street": "Brasil & Pichincha", "post_code": "1260", "capacity": 16, "is_charging_station": false, "rental_methods": ["KEY", "TRANSITCARD", "PHONE"], "groups": ["PARQUE PATRICIOS"], "nearby_distance": 1000.0, "_ride_code_support": true, "rental_uris": {}}, {"station_id": "111", "name": "111 - MACACHA GUEMES", "physical_configuration": "SMARTLITMAPFRAME", "lat": -34.6054877, "lon": -58.3646858, "altitude": 0.0, "address": "Macacha Guemes 350", "cross_street": "Macacha Guemes 350 &Pierina Dealessi", "post_code": "1111", "capacity": 30, "is_charging_station": false, "rental_methods": ["KEY", "TRANSITCARD", "PHONE"], "groups": ["PUERTO MADERO"], "nearby_distance": 1609.34, "_ride_code_support": true, "rental_uris": {}}, {"station_id": "112", "name": "112 - 9 de Julio", "physical_configuration": "SMARTLITMAPFRAME", "lat": -34.612075, "lon": -58.380384, "altitude": 0.0, "address": "Bernardo Irigoyen 320", "cross_street": "Bernardo Irigoyen 320 & Moreno", "post_code": "11111", "capacity": 20, "is_charging_station": false, "rental_methods": ["KEY", "TRANSITCARD", "PHONE"], "groups": ["MONSERRAT"], "nearby_distance": 1609.34, "_ride_code_support": true, "rental_uris": {}}, {"station_id": "114", "name": "114 - TORRE MACRO", "physical_configuration": "SMARTLITMAPFRAME", "lat": -34.59398891976011, "lon": -58.37142444536896, "altitude": 0.0, "address": " Av. Eduardo Madero 1180", "cross_street": " Av. Eduardo Madero 1180", "post_code": "11111", "capacity": 12, "is_charging_station": false, "rental_methods": ["KEY", "TRANSITCARD", "PHONE"], "groups": ["RETIRO"], "nearby_distance": 1609.34, "_ride_code_support": true, "rental_uris": {}}, {"station_id": "116", "name": "116 - HOSPITAL ALEM\u00c1N", "physical_configuration": "SMARTLITMAPFRAME", "lat": -34.5921708, "lon": -58.4025894, "altitude": 0.0, "address": "Beruti & Ecuador", "cross_street": "Beruti & Ecuador", "post_code": "1111", "capacity": 11, "is_charging_station": false, "rental_methods": ["KEY", "TRANSITCARD", "PHONE"], "groups": ["RECOLETA"], "nearby_distance": 1000.0, "_ride_code_support": true, "rental_uris": {}}, {"station_id": "117", "name": "117 - HUMBERTO 1\u00b0", "physical_configuration": "SMARTLITMAPFRAME", "lat": -34.61955283137281, "lon": -58.373159304761074, "altitude": 0.0, "address": "Av. Carlos Calvo 513", "cross_street": "Peru  1016& Carlos Calvo", "post_code": "11111", "capacity": 20, "is_charging_station": false, "rental_methods": ["KEY", "TRANSITCARD", "PHONE"], "groups": ["SAN TELMO"], "nearby_distance": 1000.0, "_ride_code_support": true, "rental_uris": {}}, {"station_id": "118", "name": "118 - MEXICO", "physical_configuration": "SMARTLITMAPFRAME", "lat": -34.6170196, "lon": -58.4026531, "altitude": 0.0, "address": "Saavedra & Mexico", "cross_street": "Saavedra & Mexico", "post_code": "11111", "capacity": 20, "is_charging_station": false, "rental_methods": ["KEY", "TRANSITCARD", "PHONE"], "groups": ["BALVANERA"], "nearby_distance": 1000.0, "_ride_code_support": true, "rental_uris": {}}, {"station_id": "120", "name": "120 - HOSPITAL RAMOS MEJIA", "physical_configuration": "SMARTLITMAPFRAME", "lat": -34.617509, "lon": -58.4092876, "altitude": 0.0, "address": "3084 Agrelo", "cross_street": "3084 Agrelo & Urquiza", "post_code": "1111", "capacity": 20, "is_charging_station": false, "rental_methods": ["KEY", "TRANSITCARD", "PHONE"], "groups": ["BALVANERA"], "nearby_distance": 1000.0, "_ride_code_support": true, "rental_uris": {}}, {"station_id": "121", "name": "121 - YATAY", "physical_configuration": "SMARTLITMAPFRAME", "lat": -34.6011732, "lon": -58.4285093, "altitude": 0.0, "address": "925 Yatay& Humahuaca", "cross_street": "925 Yatay& Humahuaca", "post_code": "1111", "capacity": 20, "is_charging_station": false, "rental_methods": ["KEY", "TRANSITCARD", "PHONE"], "groups": ["ALMAGRO"], "nearby_distance": 1000.0, "_ride_code_support": true, "rental_uris": {}}, {"station_id": "122", "name": "122 - COSTA RICA", "physical_configuration": "SMARTLITMAPFRAME", "lat": -34.5915614, "lon": -58.41981629999999, "altitude": 0.0, "address": "COSTA RICA 4060", "cross_street": "COSTA RICA 4060", "post_code": "C1176", "capacity": 23, "is_charging_station": false, "rental_methods": ["KEY", "TRANSITCARD", "PHONE"], "groups": ["PALERMO"], "nearby_distance": 1000.0, "_ride_code_support": true, "rental_uris": {}}, {"station_id": "124", "name": "124 - UGARTECHE", "physical_configuration": "SMARTLITMAPFRAME", "lat": -34.580538, "lon": -58.411965, "altitude": 0.0, "address": "3050 Ugarteche", "cross_street": "3050 Ugarteche & Cabello", "post_code": "C3123", "capacity": 20, "is_charging_station": false, "rental_methods": ["KEY", "TRANSITCARD", "PHONE"], "groups": ["PALERMO"], "nearby_distance": 1000.0, "_ride_code_support": true, "rental_uris": {}}, {"station_id": "126", "name": "126 - Ministerio de Justicia y Seguridad", "physical_configuration": "SMARTLITMAPFRAME", "lat": -34.63922546953217, "lon": -58.36958898591383, "altitude": 0.0, "address": "Olavarr\u00eda 1201", "post_code": "C1267", "capacity": 16, "is_charging_station": false, "rental_methods": ["KEY", "TRANSITCARD", "PHONE"], "groups": ["BOCA"], "nearby_distance": 1000.0, "_ride_code_support": true, "rental_uris": {}}, {"station_id": "128", "name": "128 - PARQUE DEL BAJO", "physical_configuration": "SMARTLITMAPFRAME", "lat": -34.60515159, "lon": -58.36882117, "altitude": 0.0, "address": "Tte. Gral. Juan Domingo Per\u00f3n 133", "cross_street": "Madero, Eduardo Av. & Peron, Juan Domingo, Tte. General", "post_code": "1111", "capacity": 28, "is_charging_station": false, "rental_methods": ["KEY", "TRANSITCARD", "PHONE"], "groups": ["SAN NICOLAS"], "nearby_distance": 1000.0, "_ride_code_support": true, "rental_uris": {}}, {"station_id": "130", "name": "130 - RETIRO II", "physical_configuration": "SMARTLITMAPFRAME", "lat": -34.5917376, "lon": -58.37436403, "altitude": 0.0, "address": "Av. Dr. Jos\u00e9 Mar\u00eda Ramos Mej\u00eda 1350", "cross_street": "Ramos Mejia, Av Dr Jose Maria Vargas& Av. Del Libertador", "post_code": "1111", "capacity": 39, "is_charging_station": false, "rental_methods": ["KEY", "TRANSITCARD", "PHONE"], "groups": ["RETIRO"], "obcn": "130", "nearby_distance": 1609.34, "_ride_code_support": true, "rental_uris": {}}, {"station_id": "131", "name": "131- HOSPITAL DE CL\u00cdNICAS", "physical_configuration": "SMARTLITMAPFRAME", "lat": -34.5984043, "lon": -58.3990158, "altitude": 0.0, "address": "Uriburu Jose E., Pres. & Paraguay", "cross_street": "Uriburu Jose E., Pres. & Paraguay", "post_code": "1111", "capacity": 16, "is_charging_station": false, "rental_methods": ["KEY", "TRANSITCARD", "PHONE"], "groups": ["RECOLETA"], "nearby_distance": 1000.0, "_ride_code_support": true, "rental_uris": {}}, {"station_id": "132", "name": "132 - CORRIENTES", "physical_configuration": "SMARTLITMAPFRAME", "lat": -34.6033685, "lon": -58.372763, "altitude": 0.0, "address": "Reconquista & Corrientes Av.", "cross_street": "Reconquista & Corrientes Av.", "post_code": "1111", "capacity": 12, "is_charging_station": false, "rental_methods": ["KEY", "TRANSITCARD", "PHONE"], "groups": ["SAN NICOLAS"], "nearby_distance": 1000.0, "_ride_code_support": true, "rental_uris": {}}, {"station_id": "134", "name": "134 - SOLDADO DE LA FRONTERA", "physical_configuration": "SMARTLITMAPFRAME", "lat": -34.683188, "lon": -58.468952, "altitude": 0.0, "address": "Ana D\u00edaz 5899", "cross_street": ".", "post_code": "C1439", "capacity": 12, "is_charging_station": false, "rental_methods": ["KEY", "TRANSITCARD", "PHONE"], "groups": ["VILLA LUGANO"], "nearby_distance": 1000.0, "_ride_code_support": true, "rental_uris": {}}, {"station_id": "135", "name": "135 - MARCELO T. DE ALVEAR", "physical_configuration": "SMARTLITMAPFRAME", "lat": -34.5976425, "lon": -58.378363, "altitude": 0.0, "address": "Esmeralda & Paraguay", "cross_street": "Esmeralda & Paraguay ", "post_code": "C1057", "capacity": 20, "is_charging_station": false, "rental_methods": ["KEY", "TRANSITCARD", "PHONE"], "groups": ["SAN NICOLAS"], "nearby_distance": 1000.0, "_ride_code_support": true, "rental_uris": {}}, {"station_id": "137", "name": "137 - AZOPARDO Y CHILE", "physical_configuration": "SMARTLITMAPFRAME", "lat": -34.6155977, "lon": -58.3674923, "altitude": 0.0, "address": "AZOPARDO 700", "cross_street": "AZOPARDO 700 & AV CHILE", "post_code": "1111", "capacity": 24, "is_charging_station": false, "rental_methods": ["KEY", "TRANSITCARD", "PHONE"], "groups": ["MONSERRAT"], "nearby_distance": 1609.34, "_ride_code_support": true, "rental_uris": {}}, {"station_id": "138", "name": "138 - Hospital Britanico", "physical_configuration": "SMARTLITMAPFRAME", "lat": -34.6353595, "lon": -58.3876724, "altitude": 0.0, "address": "153 Perdriel", "post_code": "1111", "capacity": 11, "is_charging_station": false, "rental_methods": ["KEY", "TRANSITCARD", "PHONE"], "groups": ["BARRACAS"], "nearby_distance": 1000.0, "_ride_code_support": true, "rental_uris": {}}, {"station_id": "144", "name": "144 - PUEYRRED\u00d3N", "physical_configuration": "SMARTLITMAPFRAME", "lat": -34.6018744, "lon": -58.4060944, "altitude": 0.0, "address": "684 Boulogne Sur Mer & Tucuman", "cross_street": "684 Boulogne Sur Mer & Tucuman", "post_code": "1111", "capacity": 19, "is_charging_station": false, "rental_methods": ["KEY", "TRANSITCARD", "PHONE"], "groups": ["BALVANERA"], "nearby_distance": 1000.0, "_ride_code_support": true, "rental_uris": {}}, {"station_id": "146", "name": "146 - Hospital Franc\u00e9s", "physical_configuration": "SMARTLITMAPFRAME", "lat": -34.6221118, "lon": -58.4078419, "altitude": 0.0, "address": "3024 Calvo, Carlos", "cross_street": "3024 Calvo, Carlos & La Rioja", "post_code": "1111", "capacity": 19, "is_charging_station": false, "rental_methods": ["KEY", "TRANSITCARD", "PHONE"], "groups": ["SAN CRISTOBAL"], "nearby_distance": 1000.0, "_ride_code_support": true, "rental_uris": {}}, {"station_id": "148", "name": "323 - Parque Avellaneda II", "physical_configuration": "SMARTLITMAPFRAME", "lat": -34.6451767192088, "lon": -58.484555279762255, "altitude": 0.0, "address": "Av. Directorio 4295 ", "post_code": "1111", "capacity": 16, "is_charging_station": false, "rental_methods": ["KEY", "TRANSITCARD", "PHONE"], "groups": ["PARQUE AVELLANEDA"], "nearby_distance": 1000.0, "_ride_code_support": true, "rental_uris": {}}, {"station_id": "149", "name": "149 - LIMA", "physical_configuration": "SMARTLITMAPFRAME", "lat": -34.6153266, "lon": -58.3813642, "altitude": 0.0, "address": "M\u00e9xico & Lima", "cross_street": "M\u00e9xico & Lima", "post_code": "11111", "capacity": 16, "is_charging_station": false, "rental_methods": ["KEY", "TRANSITCARD", "PHONE"], "groups": ["MONSERRAT"], "nearby_distance": 1609.34, "_ride_code_support": true, "rental_uris": {}}, {"station_id": "150", "name": "150 - RODRIGO BUENO", "physical_configuration": "SMARTLITMAPFRAME", "lat": -34.6187547, "lon": -58.3554654, "altitude": 0.0, "address": "Av. Espa\u00f1a 2200", "cross_street": "Av. Espa\u00f1a y Rodrigo Bueno", "post_code": "1111", "capacity": 36, "is_charging_station": false, "rental_methods": ["KEY", "TRANSITCARD", "PHONE"], "groups": ["PUERTO MADERO"], "nearby_distance": 1609.34, "_ride_code_support": true, "rental_uris": {}}, {"station_id": "152", "name": "152 - JULIETA LANTERI", "physical_configuration": "SMARTLITMAPFRAME", "lat": -34.6181645, "lon": -58.3596311, "altitude": 0.0, "address": "Vera Pe\u00f1aloza, Rosario 599 & Lanteri Julieta", "cross_street": "Vera Pe\u00f1aloza, Rosario & Lanteri Julieta", "post_code": "11111", "capacity": 28, "is_charging_station": false, "rental_methods": ["KEY", "TRANSITCARD", "PHONE"], "groups": ["PUERTO MADERO"], "nearby_distance": 1609.34, "_ride_code_support": true, "rental_uris": {}}, {"station_id": "153", "name": "153 - JUAN MANUEL DE BLANES", "physical_configuration": "SMARTLITMAPFRAME", "lat": -34.6310284, "lon": -58.36288800000001, "altitude": 0.0, "address": "Av. Almirante Brown 653", "post_code": "C1155", "capacity": 20, "is_charging_station": false, "rental_methods": ["KEY", "TRANSITCARD", "PHONE"], "groups": ["BOCA"], "nearby_distance": 1000.0, "_ride_code_support": true, "rental_uris": {}}, {"station_id": "155", "name": "155 - Parque Jos\u00e9 Evaristo Uriburu", "physical_configuration": "SMARTLITMAPFRAME", "lat": -34.645082199430064, "lon": -58.41749173359584, "altitude": 0.0, "address": " Quilmes 491", "cross_street": ".", "post_code": "C1437", "capacity": 12, "is_charging_station": false, "rental_methods": ["KEY", "TRANSITCARD", "PHONE"], "groups": ["NUEVA POMPEYA"], "nearby_distance": 1000.0, "_ride_code_support": true, "rental_uris": {}}, {"station_id": "156", "name": "156 - Plaza Alemania", "physical_configuration": "SMARTLITMAPFRAME", "lat": -34.5775895, "lon": -58.4074696, "altitude": 0.0, "address": "2939 Cavia", "cross_street": "Cavia &  Av. Del Libertador", "post_code": "11111", "capacity": 20, "is_charging_station": false, "rental_methods": ["KEY", "TRANSITCARD", "PHONE"], "groups": ["PALERMO"], "nearby_distance": 1000.0, "_ride_code_support": true, "rental_uris": {}}, {"station_id": "158", "name": "158 - VILLARROEL", "physical_configuration": "SMARTLITMAPFRAME", "lat": -34.592735, "lon": -58.4450697, "altitude": 0.0, "address": "1321 Villarroel & Humboldt CABA", "post_code": "1111", "capacity": 20, "is_charging_station": false, "rental_methods": ["KEY", "TRANSITCARD", "PHONE"], "groups": ["ZONA 1"], "nearby_distance": 1000.0, "_ride_code_support": true, "rental_uris": {}}, {"station_id": "161", "name": "161 - Humahuaca", "physical_configuration": "SMARTLITMAPFRAME", "lat": -34.6020779, "lon": -58.4196761, "altitude": 0.0, "address": "3912 Humahuaca", "cross_street": "Humahuaca &  Jeronimo Salguero", "post_code": "11111", "capacity": 20, "is_charging_station": false, "rental_methods": ["KEY", "TRANSITCARD", "PHONE"], "groups": ["ALMAGRO"], "nearby_distance": 1000.0, "_ride_code_support": true, "rental_uris": {}}, {"station_id": "162", "name": "162 - LARREA Y BARTOLOM\u00c9 MITRE", "physical_configuration": "SMARTLITMAPFRAME", "lat": -34.608985, "lon": -58.401924, "altitude": 0.0, "address": "80 Larrea", "cross_street": "80 Larrea & Mitre, Bartolome", "post_code": "C1030", "capacity": 20, "is_charging_station": false, "rental_methods": ["KEY", "TRANSITCARD", "PHONE"], "groups": ["BALVANERA"], "nearby_distance": 1000.0, "_ride_code_support": true, "rental_uris": {}}, {"station_id": "163", "name": "163 - ONCE II", "physical_configuration": "SMARTLITMAPFRAME", "lat": -34.6095663, "lon": -58.4064308, "altitude": 0.0, "address": "Bartolome Mitre & Av. Puyrredon", "post_code": "11111", "capacity": 29, "is_charging_station": false, "rental_methods": ["KEY", "TRANSITCARD", "PHONE"], "groups": ["BALVANERA"], "nearby_distance": 1000.0, "_ride_code_support": true, "rental_uris": {}}, {"station_id": "164", "name": "164 - FACULTAD DE INGENIERIA", "physical_configuration": "SMARTLITMAPFRAME", "lat": -34.617301, "lon": -58.3698984, "altitude": 0.0, "address": "AV. PASEO COL\u00d3N 811", "cross_street": "Estados Unidos 21 &Av. Ing. Huergo", "post_code": "1111", "capacity": 20, "is_charging_station": false, "rental_methods": ["KEY", "TRANSITCARD", "PHONE"], "groups": ["SAN TELMO"], "nearby_distance": 1000.0, "_ride_code_support": true, "rental_uris": {}}, {"station_id": "165", "name": "165 - PLAZA MONSE\u00d1OR MIGUEL DE ANDREA", "physical_configuration": "SMARTLITMAPFRAME", "lat": -34.597048, "lon": -58.407614, "altitude": 0.0, "address": "Dr Tomas Manuel De  Anchorena &  Jose A. Cabrera", "cross_street": "Dr Tomas Manuel De  Anchorena &  Jose A. Cabrera", "post_code": "C1170", "capacity": 12, "is_charging_station": false, "rental_methods": ["KEY", "TRANSITCARD", "PHONE"], "groups": ["RECOLETA"], "nearby_distance": 1000.0, "_ride_code_support": true, "rental_uris": {}}, {"station_id": "166", "name": "166 - Cementerio de Recoleta", "physical_configuration": "SMARTLITMAPFRAME", "lat": -34.588346663239754, "lon": -58.394147942865644, "altitude": 0.0, "address": "Vicente L\u00f3pez 2100", "cross_street": "Vicente Lopez & Junin", "post_code": "1111", "capacity": 12, "is_charging_station": false, "rental_methods": ["KEY", "TRANSITCARD", "PHONE"], "groups": ["RECOLETA"], "nearby_distance": 1000.0, "_ride_code_support": true, "rental_uris": {}}, {"station_id": "167", "name": "275 - PLAZA 24 DE SEPTIEMBRE", "physical_configuration": "SMARTLITMAPFRAME", "lat": -34.606984, "lon": -58.44854, "altitude": 0.0, "address": "1355 San Martin Av.", "post_code": "1111", "capacity": 24, "is_charging_station": false, "rental_methods": ["KEY", "TRANSITCARD", "PHONE"], "groups": ["VILLA CRESPO"], "nearby_distance": 1000.0, "_ride_code_support": true, "rental_uris": {}}, {"station_id": "168", "name": "168 - Estados Unidos", "physical_configuration": "SMARTLITMAPFRAME", "lat": -34.6186217, "lon": -58.3812271, "altitude": 0.0, "address": "Estados Unidos & Lima", "cross_street": "Estados Unidos & Lima", "post_code": "11111", "capacity": 20, "is_charging_station": false, "rental_methods": ["KEY", "TRANSITCARD", "PHONE"], "groups": ["CONSTITUCION"], "nearby_distance": 1609.34, "_ride_code_support": true, "rental_uris": {}}, {"station_id": "171", "name": "171 - Pasteur", "physical_configuration": "SMARTLITMAPFRAME", "lat": -34.6032813, "lon": -58.3997553, "altitude": 0.0, "address": "519 Pasteur", "cross_street": "Pasteur & Lavalle", "post_code": "11111", "capacity": 19, "is_charging_station": false, "rental_methods": ["KEY", "TRANSITCARD", "PHONE"], "groups": ["BALVANERA"], "nearby_distance": 1000.0, "_ride_code_support": true, "rental_uris": {}}, {"station_id": "172", "name": "172 - BRASIL", "physical_configuration": "SMARTLITMAPFRAME", "lat": -34.625426, "lon": -58.371082, "altitude": 0.0, "address": "BRASIL&DEFENSA", "cross_street": "BRASIL&DEFENSA", "post_code": "C1143", "capacity": 16, "is_charging_station": false, "rental_methods": ["KEY", "TRANSITCARD", "PHONE"], "groups": ["SAN TELMO"], "nearby_distance": 1000.0, "_ride_code_support": true, "rental_uris": {}}, {"station_id": "174", "name": "174 - MINISTERIO DE EDUCACION", "physical_configuration": "SMARTLITMAPFRAME", "lat": -34.597225, "lon": -58.391768, "altitude": 0.0, "address": "Marcelo T. de Alvear & Rodriguez Pe\u00f1a", "cross_street": "Marcelo T. de Alvear & Rodriguez Pe\u00f1a", "post_code": "C1021", "capacity": 20, "is_charging_station": false, "rental_methods": ["KEY", "TRANSITCARD", "PHONE"], "groups": ["RECOLETA"], "nearby_distance": 1000.0, "_ride_code_support": true, "rental_uris": {}}, {"station_id": "175", "name": "147 - Constituci\u00f3n", "physical_configuration": "SMARTLITMAPFRAME", "lat": -34.626851, "lon": -58.380707, "altitude": 0.0, "address": "Avenida Juan de Garay 1050", "post_code": "111", "capacity": 54, "is_charging_station": false, "rental_methods": ["KEY", "TRANSITCARD", "PHONE"], "groups": ["CONSTITUCION"], "obcn": "147", "nearby_distance": 984916.08, "_ride_code_support": true, "rental_uris": {}}, {"station_id": "176", "name": "067 - PARQUE SARMIENTO I", "physical_configuration": "SMARTLITMAPFRAME", "lat": -34.555254, "lon": -58.494845, "altitude": 0.0, "address": "Av. Dr. Ricardo Balb\u00edn 4402", "post_code": "1111", "capacity": 15, "is_charging_station": false, "rental_methods": ["KEY", "TRANSITCARD", "PHONE"], "groups": ["SAAVEDRA"], "nearby_distance": 1000.0, "_ride_code_support": true, "rental_uris": {}}, {"station_id": "177", "name": "177 -PLANETARIO", "physical_configuration": "SMARTLITMAPFRAME", "lat": -34.568165, "lon": -58.412121, "altitude": 0.0, "address": "Av Casares y Av Belisario Roldan", "post_code": "11111", "capacity": 12, "is_charging_station": false, "rental_methods": ["KEY", "TRANSITCARD", "PHONE"], "groups": ["PALERMO"], "nearby_distance": 1000.0, "_ride_code_support": true, "rental_uris": {}}, {"station_id": "179", "name": "179 - CASA SAN", "physical_configuration": "SMARTLITMAPFRAME", "lat": -34.6384786, "lon": -58.3642885, "altitude": 0.0, "address": "Olavarr\u00eda 811", "cross_street": "Olavarr\u00eda 811", "post_code": "1111", "capacity": 15, "is_charging_station": false, "rental_methods": ["KEY", "TRANSITCARD", "PHONE"], "groups": ["BOCA"], "nearby_distance": 1000.0, "_ride_code_support": true, "rental_uris": {}}, {"station_id": "181", "name": "181 - BILLINGHURST Y MANSILLA", "physical_configuration": "SMARTLITMAPFRAME", "lat": -34.5926649, "lon": -58.4120072, "altitude": 0.0, "address": "1520 Billinghurst & Mansilla, Lucio Norberto, General", "cross_street": "1520 Billinghurst & Mansilla, Lucio Norberto, General", "post_code": "11111", "capacity": 20, "is_charging_station": false, "rental_methods": ["KEY", "TRANSITCARD", "PHONE"], "groups": ["RECOLETA"], "nearby_distance": 1000.0, "_ride_code_support": true, "rental_uris": {}}, {"station_id": "182", "name": "182 - RAVIGNANI Y GUATEMALA", "physical_configuration": "SMARTLITMAPFRAME", "lat": -34.5780479, "lon": -58.4352466, "altitude": 0.0, "address": "2185 Ravignani, Emilio, Dr. & Guatemala", "post_code": "1111", "capacity": 20, "is_charging_station": false, "rental_methods": ["KEY", "TRANSITCARD", "PHONE"], "groups": ["PALERMO"], "nearby_distance": 1000.0, "_ride_code_support": true, "rental_uris": {}}, {"station_id": "183", "name": "183 - VIRREY CEVALLOS", "physical_configuration": "SMARTLITMAPFRAME", "lat": -34.6156994, "lon": -58.3899728, "altitude": 0.0, "address": "Mexico 1652", "cross_street": "Mexico 1652", "post_code": "11111", "capacity": 28, "is_charging_station": false, "rental_methods": ["KEY", "TRANSITCARD", "PHONE"], "groups": ["MONSERRAT"], "nearby_distance": 1609.34, "_ride_code_support": true, "rental_uris": {}}, {"station_id": "184", "name": "184 - Pedro Echague", "physical_configuration": "SMARTLITMAPFRAME", "lat": -34.6306129, "lon": -58.3913419, "altitude": 0.0, "address": "Pedro Echague 1878 & Combate De Los Pozos", "post_code": "11111", "capacity": 20, "is_charging_station": false, "rental_methods": ["KEY", "TRANSITCARD", "PHONE"], "groups": ["PARQUE PATRICIOS"], "obcn": "", "nearby_distance": 1000.0, "_ride_code_support": true, "rental_uris": {}}, {"station_id": "186", "name": "186 - MANZANA 66", "physical_configuration": "SMARTLITMAPFRAME", "lat": -34.6136356, "lon": -58.4064415, "altitude": 0.0, "address": "2875 Moreno", "cross_street": "2875 Moreno & Catamarca", "post_code": "11111", "capacity": 20, "is_charging_station": false, "rental_methods": ["KEY", "TRANSITCARD", "PHONE"], "groups": ["BALVANERA"], "nearby_distance": 1000.0, "_ride_code_support": true, "rental_uris": {}}, {"station_id": "187", "name": "261 - QUINTEROS LIDORO", "physical_configuration": "SMARTLITMAPFRAME", "lat": -34.552571, "lon": -58.450897, "altitude": 0.0, "address": "1483 Quinteros, Lidoro J. Av.", "post_code": "1111", "capacity": 16, "is_charging_station": false, "rental_methods": ["KEY", "TRANSITCARD", "PHONE"], "groups": ["BELGRANO"], "nearby_distance": 1000.0, "_ride_code_support": true, "rental_uris": {}}, {"station_id": "188", "name": "373 - Jorgelina De Simone", "physical_configuration": "SMARTLITMAPFRAME", "lat": -34.62393, "lon": -58.39125, "altitude": 0.0, "address": "Cochabamba 1799", "post_code": "1111", "capacity": 24, "is_charging_station": false, "rental_methods": ["KEY", "TRANSITCARD", "PHONE"], "groups": ["CONSTITUCION"], "nearby_distance": 984916.08, "_ride_code_support": true, "rental_uris": {}}, {"station_id": "189", "name": "189 - POSADAS", "physical_configuration": "SMARTLITMAPFRAME", "lat": -34.5886889, "lon": -58.3852113, "altitude": 0.0, "address": "1350 Posadas", "cross_street": "Posadas & Montevideo", "post_code": "11111", "capacity": 19, "is_charging_station": false, "rental_methods": ["KEY", "TRANSITCARD", "PHONE"], "groups": ["RETIRO"], "nearby_distance": 1609.34, "_ride_code_support": true, "rental_uris": {}}, {"station_id": "190", "name": "190 - JUNCAL", "physical_configuration": "SMARTLITMAPFRAME", "lat": -34.5850763, "lon": -58.4111136, "altitude": 0.0, "address": "Juncal & Salguero, Jeronimo", "cross_street": "Juncal & Salguero, Jeronimo", "post_code": "11111", "capacity": 20, "is_charging_station": false, "rental_methods": ["KEY", "TRANSITCARD", "PHONE"], "groups": ["PALERMO"], "nearby_distance": 1000.0, "_ride_code_support": true, "rental_uris": {}}, {"station_id": "191", "name": "191 - Rivadavia y 9 de Julio", "physical_configuration": "SMARTLITMAPFRAME", "lat": -34.6079305, "lon": -58.3808358, "altitude": 0.0, "address": "Pellegrini Y Rivadavia Av.", "post_code": "11111", "capacity": 15, "is_charging_station": false, "rental_methods": ["KEY", "TRANSITCARD", "PHONE"], "groups": ["SAN NICOLAS"], "nearby_distance": 1000.0, "_ride_code_support": true, "rental_uris": {}}, {"station_id": "193", "name": "193 - ARENALES Y AGUERO", "physical_configuration": "SMARTLITMAPFRAME", "lat": -34.5908626, "lon": -58.4061652, "altitude": 0.0, "address": "Arenales y Aguero", "cross_street": "2882 Arenales & Aguero", "post_code": "1111", "capacity": 20, "is_charging_station": false, "rental_methods": ["KEY", "TRANSITCARD", "PHONE"], "groups": ["RECOLETA"], "nearby_distance": 1000.0, "_ride_code_support": true, "rental_uris": {}}, {"station_id": "194", "name": "194 - PER\u00d3N Y ACU\u00d1A DE FIGUEROA", "physical_configuration": "SMARTLITMAPFRAME", "lat": -34.6060758, "lon": -58.4224635, "altitude": 0.0, "address": "3997 TTE. GENERAL JUAN DOMINGO PERON", "cross_street": "3997 TTE. GENERAL JUAN DOMINGO PERON", "post_code": "1111", "capacity": 14, "is_charging_station": false, "rental_methods": ["KEY", "TRANSITCARD", "PHONE"], "groups": ["ALMAGRO"], "nearby_distance": 1000.0, "_ride_code_support": true, "rental_uris": {}}, {"station_id": "196", "name": "196 - HOSPITAL ARGERICH", "physical_configuration": "SMARTLITMAPFRAME", "lat": -34.6277671, "lon": -58.36602490000001, "altitude": 0.0, "address": "750 Pi y Margall", "cross_street": "750 Pi Y Margall & Necochea", "post_code": "11111", "capacity": 20, "is_charging_station": false, "rental_methods": ["KEY", "TRANSITCARD", "PHONE"], "groups": ["BOCA"], "nearby_distance": 1000.0, "_ride_code_support": true, "rental_uris": {}}, {"station_id": "197", "name": "197 - PLAZA CIUDAD DE UDINE", "physical_configuration": "SMARTLITMAPFRAME", "lat": -34.620998, "lon": -58.493044, "altitude": 0.0, "address": "Mercedes 1480", "post_code": "111111", "capacity": 20, "is_charging_station": false, "rental_methods": ["KEY", "TRANSITCARD", "PHONE"], "groups": ["FLORESTA"], "obcn": "", "nearby_distance": 1000.0, "_ride_code_support": true, "rental_uris": {}}, {"station_id": "199", "name": "199 - ESTADOS UNIDOS Y BOEDO", "physical_configuration": "SMARTLITMAPFRAME", "lat": -34.6222601, "lon": -58.4160137, "altitude": 0.0, "address": "3568 Estados Unidos & Boedo Av.", "cross_street": "3568 Estados Unidos & Boedo Av.", "post_code": "11111", "capacity": 20, "is_charging_station": false, "rental_methods": ["KEY", "TRANSITCARD", "PHONE"], "groups": ["BOEDO"], "obcn": "", "nearby_distance": 20000.0, "_ride_code_support": true, "rental_uris": {}}, {"station_id": "200", "name": "200 - AUSTRIA Y FRENCH", "physical_configuration": "SMARTLITMAPFRAME", "lat": -34.5882997, "lon": -58.4042608, "altitude": 0.0, "address": "Austria 2075", "cross_street": "Austria & Juncal", "post_code": "C1425", "capacity": 16, "is_charging_station": false, "rental_methods": ["KEY", "TRANSITCARD", "PHONE"], "groups": ["RECOLETA"], "obcn": "", "nearby_distance": 500.0, "_ride_code_support": true, "rental_uris": {}}, {"station_id": "202", "name": "001 - FACULTAD DE DERECHO", "physical_configuration": "SMARTLITMAPFRAME", "lat": -34.583749, "lon": -58.390602, "altitude": 0.0, "address": "Av. Pres. Figueroa Alcorta 2120", "post_code": "11111", "capacity": 29, "is_charging_station": false, "rental_methods": ["KEY", "TRANSITCARD", "PHONE"], "groups": ["RECOLETA"], "obcn": "", "nearby_distance": 1000.0, "_ride_code_support": true, "rental_uris": {}}, {"station_id": "203", "name": "108 - Usina del Arte", "physical_configuration": "SMARTLITMAPFRAME", "lat": -34.628757, "lon": -58.356259, "altitude": 0.0, "address": "Caffarena, Agustin R. & Don Pedro De Mendoza Av.", "post_code": "11111", "capacity": 24, "is_charging_station": false, "rental_methods": ["KEY", "TRANSITCARD", "PHONE"], "groups": ["BOCA"], "obcn": "", "nearby_distance": 1000.0, "_ride_code_support": true, "rental_uris": {}}, {"station_id": "204", "name": "167 - Hip\u00f3lito Yrigoyen", "physical_configuration": "SMARTLITMAPFRAME", "lat": -34.614948, "lon": -58.427818, "altitude": 0.0, "address": "4300 Yrigoyen, Hipolito Av.", "post_code": "11111", "capacity": 24, "is_charging_station": false, "rental_methods": ["KEY", "TRANSITCARD", "PHONE"], "groups": ["ALMAGRO"], "obcn": "", "nearby_distance": 10000.0, "_ride_code_support": true, "rental_uris": {}}, {"station_id": "206", "name": "159 - Fitz Roy & Gorriti", "physical_configuration": "SMARTLITMAPFRAME", "lat": -34.58495, "lon": -58.437339, "altitude": 0.0, "address": "Fitz Roy & Gorriti", "post_code": "11111", "capacity": 16, "is_charging_station": false, "rental_methods": ["KEY", "TRANSITCARD", "PHONE"], "groups": ["PALERMO"], "obcn": "", "nearby_distance": 1000.0, "_ride_code_support": true, "rental_uris": {}}, {"station_id": "207", "name": "123 - BASUALDO Y RODO", "physical_configuration": "SMARTLITMAPFRAME", "lat": -34.65237685302847, "lon": -58.487359356906865, "altitude": 0.0, "address": "Guardia Nacional 1700", "post_code": "11111", "capacity": 16, "is_charging_station": false, "rental_methods": ["KEY", "TRANSITCARD", "PHONE"], "groups": ["MATADEROS"], "obcn": "", "nearby_distance": 1000.0, "_ride_code_support": true, "rental_uris": {}}, {"station_id": "208", "name": "145 - RAVIGNANI", "physical_configuration": "SMARTLITMAPFRAME", "lat": -34.5807161, "lon": -58.43840400000001, "altitude": 0.0, "address": "EMILIO RAVIGNANI 1802", "cross_street": "EMILIO RAVIGNANI 1802", "post_code": "C1414", "capacity": 20, "is_charging_station": false, "rental_methods": ["KEY", "TRANSITCARD", "PHONE"], "groups": ["PALERMO"], "obcn": "", "nearby_distance": 1000.0, "_ride_code_support": true, "rental_uris": {}}, {"station_id": "210", "name": "335 - General Urquiza", "physical_configuration": "SMARTLITMAPFRAME", "lat": -34.572165, "lon": -58.411278, "altitude": 0.0, "address": "Figueroa Alcorta & Sarmiento", "post_code": "11111", "capacity": 20, "is_charging_station": false, "rental_methods": ["KEY", "TRANSITCARD", "PHONE"], "groups": ["PALERMO"], "obcn": "", "nearby_distance": 1000.0, "_ride_code_support": true, "rental_uris": {}}, {"station_id": "212", "name": "129 - Velasco", "physical_configuration": "SMARTLITMAPFRAME", "lat": -34.600275, "lon": -58.434875, "altitude": 0.0, "address": "J.Ramirez de Velasco 285", "post_code": "C1414", "capacity": 20, "is_charging_station": false, "rental_methods": ["KEY", "TRANSITCARD", "PHONE"], "groups": ["VILLA CRESPO"], "obcn": "", "nearby_distance": 1000.0, "_ride_code_support": true, "rental_uris": {}}, {"station_id": "213", "name": "136 - Acevedo", "physical_configuration": "SMARTLITMAPFRAME", "lat": -34.599659, "lon": -58.442685, "altitude": 0.0, "address": "Acevedo y Padilla", "post_code": "11111", "capacity": 20, "is_charging_station": false, "rental_methods": ["KEY", "TRANSITCARD", "PHONE"], "groups": ["VILLA CRESPO"], "obcn": "", "nearby_distance": 1000.0, "_ride_code_support": true, "rental_uris": {}}, {"station_id": "215", "name": "113 - Guatemala", "physical_configuration": "SMARTLITMAPFRAME", "lat": -34.585878, "lon": -58.424996, "altitude": 0.0, "address": "Guatemala 4773", "post_code": "11111", "capacity": 20, "is_charging_station": false, "rental_methods": ["KEY", "TRANSITCARD", "PHONE"], "groups": ["PALERMO"], "obcn": "", "nearby_distance": 1000.0, "_ride_code_support": true, "rental_uris": {}}, {"station_id": "216", "name": "059 - Coronel Diaz", "physical_configuration": "SMARTLITMAPFRAME", "lat": -34.589968, "lon": -58.411493, "altitude": 0.0, "address": "Guemes 3330 & Coronel Diaz", "post_code": "11111", "capacity": 20, "is_charging_station": false, "rental_methods": ["KEY", "TRANSITCARD", "PHONE"], "groups": ["PALERMO"], "obcn": "", "nearby_distance": 1000.0, "_ride_code_support": true, "rental_uris": {}}, {"station_id": "219", "name": "140 - Las Casas", "physical_configuration": "SMARTLITMAPFRAME", "lat": -34.6360274, "lon": -58.4156332, "altitude": 0.0, "address": "Metan 3661", "post_code": "11111", "capacity": 24, "is_charging_station": false, "rental_methods": ["KEY", "TRANSITCARD", "PHONE"], "groups": ["BOEDO"], "obcn": "", "nearby_distance": 1000.0, "_ride_code_support": true, "rental_uris": {}}, {"station_id": "220", "name": "097 - Avelino Diaz", "physical_configuration": "SMARTLITMAPFRAME", "lat": -34.635128, "lon": -58.427573, "altitude": 0.0, "address": "Avelino Diaz&Doblas", "post_code": "11111", "capacity": 16, "is_charging_station": false, "rental_methods": ["KEY", "TRANSITCARD", "PHONE"], "groups": ["PARQUE CHACABUCO"], "obcn": "", "nearby_distance": 1000.0, "_ride_code_support": true, "rental_uris": {}}, {"station_id": "222", "name": "160 - Godoy Cruz y Libertador", "physical_configuration": "SMARTLITMAPFRAME", "lat": -34.5759189160704, "lon": -58.41854288458634, "altitude": 0.0, "address": "Av. Cervi\u00f1o 4301", "post_code": "11111", "capacity": 20, "is_charging_station": false, "rental_methods": ["KEY", "TRANSITCARD", "PHONE"], "groups": ["PALERMO"], "obcn": "", "nearby_distance": 1000.0, "_ride_code_support": true, "rental_uris": {}}, {"station_id": "223", "name": "178 - Jos\u00e9 Marmol", "physical_configuration": "SMARTLITMAPFRAME", "lat": -34.6234, "lon": -58.424853, "altitude": 0.0, "address": "803 Jos\u00e9 Marmol", "cross_street": "803 Jose Marmol & Estados Unidos", "post_code": "11111", "capacity": 16, "is_charging_station": false, "rental_methods": ["KEY", "TRANSITCARD", "PHONE"], "groups": ["BOEDO"], "obcn": "", "nearby_distance": 1000.0, "_ride_code_support": true, "rental_uris": {}}, {"station_id": "227", "name": "188 - Aranguren", "physical_configuration": "SMARTLITMAPFRAME", "lat": -34.61036075, "lon": -58.43276297, "altitude": 0.0, "address": "Dr. Juan Felipe Aranguren 131", "post_code": "11111", "capacity": 20, "is_charging_station": false, "rental_methods": ["KEY", "TRANSITCARD", "PHONE"], "groups": ["CABALLITO"], "obcn": "", "nearby_distance": 1000.0, "_ride_code_support": true, "rental_uris": {}}, {"station_id": "228", "name": "010 - Madero UCA", "physical_configuration": "SMARTLITMAPFRAME", "lat": -34.6164879, "lon": -58.3656683, "altitude": 0.0, "address": "1600 Moreau De Justo, Alicia Av.", "cross_street": "1600 Moreau De Justo, Alicia Av.", "post_code": "C1107", "capacity": 16, "is_charging_station": false, "rental_methods": ["KEY", "TRANSITCARD", "PHONE"], "groups": ["PUERTO MADERO"], "obcn": "", "nearby_distance": 1000.0, "_ride_code_support": true, "rental_uris": {}}, {"station_id": "229", "name": "243 - PLAZOLETA CELEDONIO FLORES", "physical_configuration": "SMARTLITMAPFRAME", "lat": -34.581576, "lon": -58.45153, "altitude": 0.0, "address": "Cordoba 6599", "cross_street": "Cordoba 6599", "post_code": "11111", "capacity": 11, "is_charging_station": false, "rental_methods": ["KEY", "TRANSITCARD", "PHONE"], "groups": ["ZONA 1"], "obcn": "243", "nearby_distance": 1000.0, "_ride_code_support": true, "rental_uris": {}}, {"station_id": "230", "name": "259 - PLAZA CASTELLI", "physical_configuration": "SMARTLITMAPFRAME", "lat": -34.5678255, "lon": -58.4645037, "altitude": 0.0, "address": "Echeverria 3249", "cross_street": "Echeverria 3249", "post_code": "11111", "capacity": 16, "is_charging_station": false, "rental_methods": ["KEY", "TRANSITCARD", "PHONE"], "groups": ["BELGRANO"], "obcn": "", "nearby_distance": 1000.0, "_ride_code_support": true, "rental_uris": {}}, {"station_id": "231", "name": "384 - PLAZA BENITO NAZAR", "physical_configuration": "SMARTLITMAPFRAME", "lat": -34.60511787, "lon": -58.445999589, "altitude": 0.0, "address": "VALENTIN VIRASORO 1349", "post_code": "11111", "capacity": 16, "is_charging_station": false, "rental_methods": ["KEY", "TRANSITCARD", "PHONE"], "groups": ["VILLA CRESPO"], "obcn": "", "nearby_distance": 1000.0, "_ride_code_support": true, "rental_uris": {}}, {"station_id": "232", "name": "252 - Tamborini", "physical_configuration": "SMARTLITMAPFRAME", "lat": -34.5599779, "lon": -58.4790578, "altitude": 0.0, "address": "Tamborini 3821", "post_code": "11111", "capacity": 20, "is_charging_station": false, "rental_methods": ["KEY", "TRANSITCARD", "PHONE"], "groups": ["COGHLAN"], "obcn": "", "nearby_distance": 1000.0, "_ride_code_support": true, "rental_uris": {}}, {"station_id": "234", "name": "344 - UNIVERSIDAD DI TELLA", "physical_configuration": "SMARTLITMAPFRAME", "lat": -34.5480059, "lon": -58.44694390000001, "altitude": 0.0, "address": "Figueroa Alcorta 7350", "cross_street": "Figueroa Alcorta 7350", "post_code": "C1428", "capacity": 20, "is_charging_station": false, "rental_methods": ["KEY", "TRANSITCARD", "PHONE"], "groups": ["BELGRANO"], "obcn": "", "nearby_distance": 1000.0, "_ride_code_support": true, "rental_uris": {}}, {"station_id": "235", "name": "281 - Villa Urquiza", "physical_configuration": "SMARTLITMAPFRAME", "lat": -34.573734, "lon": -58.48692409, "altitude": 0.0, "address": "Av. Triunvirato 4800", "post_code": "1111", "capacity": 23, "is_charging_station": false, "rental_methods": ["KEY", "TRANSITCARD", "PHONE"], "groups": ["VILLA URQUIZA"], "obcn": "", "nearby_distance": 1000.0, "_ride_code_support": true, "rental_uris": {}}, {"station_id": "236", "name": "254 - Plaza Rafael Hernandez", "physical_configuration": "SMARTLITMAPFRAME", "lat": -34.562161, "lon": -58.455166, "altitude": 0.0, "address": "Vuelta de Obligado 2004", "post_code": "11111", "capacity": 15, "is_charging_station": false, "rental_methods": ["KEY", "TRANSITCARD", "PHONE"], "groups": ["BELGRANO"], "obcn": "", "nearby_distance": 1000.0, "_ride_code_support": true, "rental_uris": {}}, {"station_id": "237", "name": "302 - ESTACION VILLA LURO", "physical_configuration": "SMARTLITMAPFRAME", "lat": -34.63670935917866, "lon": -58.50135525810292, "altitude": 0.0, "address": "Virgilio 90", "post_code": "1111", "capacity": 16, "is_charging_station": false, "rental_methods": ["KEY", "TRANSITCARD", "PHONE"], "groups": ["VILLA LURO"], "obcn": "", "nearby_distance": 1609.34, "_ride_code_support": true, "rental_uris": {}}, {"station_id": "239", "name": "391 - Plaza Rep\u00fablica de Ecuador", "physical_configuration": "SMARTLITMAPFRAME", "lat": -34.56533652, "lon": -58.42062076, "altitude": 0.0, "address": "Av. Pres. Figueroa Alcorta 5201", "post_code": "11111", "capacity": 20, "is_charging_station": false, "rental_methods": ["KEY", "TRANSITCARD", "PHONE"], "groups": ["PALERMO"], "obcn": "", "nearby_distance": 1000.0, "_ride_code_support": true, "rental_uris": {}}, {"station_id": "241", "name": "348 - Villa del Parque", "physical_configuration": "SMARTLITMAPFRAME", "lat": -34.600874, "lon": -58.494123, "altitude": 0.0, "address": "Gutierrez, Ricardo 3105", "post_code": "11111", "capacity": 12, "is_charging_station": false, "rental_methods": ["KEY", "TRANSITCARD", "PHONE"], "groups": ["VILLA DEL PARQUE"], "obcn": "", "nearby_distance": 1000.0, "_ride_code_support": true, "rental_uris": {}}, {"station_id": "242", "name": "103 - MALBA", "physical_configuration": "SMARTLITMAPFRAME", "lat": -34.57694914795284, "lon": -58.40398420287856, "altitude": 0.0, "address": "Av. Pres. Figueroa Alcorta 3451", "post_code": "11111", "capacity": 32, "is_charging_station": false, "rental_methods": ["KEY", "TRANSITCARD", "PHONE"], "groups": ["PALERMO"], "obcn": "", "nearby_distance": 1000.0, "_ride_code_support": true, "rental_uris": {}}, {"station_id": "245", "name": "248 - Husares", "physical_configuration": "SMARTLITMAPFRAME", "lat": -34.552594, "lon": -58.4429397, "altitude": 0.0, "address": "Husares 2201", "post_code": "11111", "capacity": 16, "is_charging_station": false, "rental_methods": ["KEY", "TRANSITCARD", "PHONE"], "groups": ["BELGRANO"], "obcn": "", "nearby_distance": 1000.0, "_ride_code_support": true, "rental_uris": {}}, {"station_id": "247", "name": "282 - Tronador", "physical_configuration": "SMARTLITMAPFRAME", "lat": -34.5838957, "lon": -58.466494, "altitude": 0.0, "address": "Triunvirato Av. & Tronador", "post_code": "11111", "capacity": 18, "is_charging_station": false, "rental_methods": ["KEY", "TRANSITCARD", "PHONE"], "groups": ["VILLA ORTUZAR"], "obcn": "", "nearby_distance": 1000.0, "_ride_code_support": true, "rental_uris": {}}, {"station_id": "248", "name": "346 - Plaza Zapiola", "physical_configuration": "SMARTLITMAPFRAME", "lat": -34.573522, "lon": -58.474635, "altitude": 0.0, "address": "2001 Donado", "post_code": "11111", "capacity": 24, "is_charging_station": false, "rental_methods": ["KEY", "TRANSITCARD", "PHONE"], "groups": ["VILLA URQUIZA"], "obcn": "", "nearby_distance": 1000.0, "_ride_code_support": true, "rental_uris": {}}, {"station_id": "251", "name": "388 - Plaza Jose C Paz", "physical_configuration": "SMARTLITMAPFRAME", "lat": -34.641728, "lon": -58.402483, "altitude": 0.0, "address": "Dr. Prof. Pedro Chutro 2881", "post_code": "1111", "capacity": 12, "is_charging_station": false, "rental_methods": ["KEY", "TRANSITCARD", "PHONE"], "groups": ["PARQUE PATRICIOS"], "obcn": "", "nearby_distance": 1000.0, "_ride_code_support": true, "rental_uris": {}}, {"station_id": "252", "name": "331 - CALIFORNIA", "physical_configuration": "SMARTLITMAPFRAME", "lat": -34.647121, "lon": -58.374336, "altitude": 0.0, "address": "California 1774 y General Hornos", "cross_street": "California y General Hornos", "post_code": "1111", "capacity": 24, "is_charging_station": false, "rental_methods": ["KEY", "TRANSITCARD", "PHONE"], "groups": ["BARRACAS"], "obcn": "", "nearby_distance": 1000.0, "_ride_code_support": true, "rental_uris": {}}, {"station_id": "253", "name": "383 - BOEDO Y VENEZUELA", "physical_configuration": "SMARTLITMAPFRAME", "lat": -34.6163544, "lon": -58.4170737, "altitude": 0.0, "address": "BOEDO 339", "cross_street": "BOEDO 339", "post_code": "C1210", "capacity": 16, "is_charging_station": false, "rental_methods": ["KEY", "TRANSITCARD", "PHONE"], "groups": ["ALMAGRO"], "obcn": "", "nearby_distance": 1000.0, "_ride_code_support": true, "rental_uris": {}}, {"station_id": "254", "name": "276 - PRIMERA JUNTA", "physical_configuration": "SMARTLITMAPFRAME", "lat": -34.62079441851816, "lon": -58.4413509067459, "altitude": 0.0, "address": "Av. Rivadavia 5408 ", "post_code": "C1424", "capacity": 16, "is_charging_station": false, "rental_methods": ["KEY", "TRANSITCARD", "PHONE"], "groups": ["CABALLITO"], "obcn": "", "nearby_distance": 1000.0, "_ride_code_support": true, "rental_uris": {}}, {"station_id": "255", "name": "374 - Puan", "physical_configuration": "SMARTLITMAPFRAME", "lat": -34.622092, "lon": -58.448547, "altitude": 0.0, "address": "Yerbal 1290", "post_code": "1111", "capacity": 20, "is_charging_station": false, "rental_methods": ["KEY", "TRANSITCARD", "PHONE"], "groups": ["CABALLITO"], "obcn": "", "nearby_distance": 1000.0, "_ride_code_support": true, "rental_uris": {}}, {"station_id": "257", "name": "264 - Plaza Marcos Sastre", "physical_configuration": "SMARTLITMAPFRAME", "lat": -34.570825, "lon": -58.481236, "altitude": 0.0, "address": "Miller & Monroe", "post_code": "11111", "capacity": 24, "is_charging_station": false, "rental_methods": ["KEY", "TRANSITCARD", "PHONE"], "groups": ["VILLA URQUIZA"], "obcn": "", "nearby_distance": 1000.0, "_ride_code_support": true, "rental_uris": {}}, {"station_id": "258", "name": "336 - La Pampa", "physical_configuration": "SMARTLITMAPFRAME", "lat": -34.565521, "lon": -58.455334, "altitude": 0.0, "address": "La Pampa 2512 & Ciudad de la Paz", "post_code": "11111", "capacity": 16, "is_charging_station": false, "rental_methods": ["KEY", "TRANSITCARD", "PHONE"], "groups": ["BELGRANO"], "obcn": "", "nearby_distance": 1000.0, "_ride_code_support": true, "rental_uris": {}}, {"station_id": "259", "name": "290 - Club Excursionistas", "physical_configuration": "SMARTLITMAPFRAME", "lat": -34.5591522, "lon": -58.4441762, "altitude": 0.0, "address": "Migueletes 1782 (y La Pampa)", "cross_street": "Migueletes 1782 (y La Pampa)", "post_code": "C1426", "capacity": 15, "is_charging_station": false, "rental_methods": ["KEY", "TRANSITCARD", "PHONE"], "groups": ["BELGRANO"], "obcn": "", "nearby_distance": 1000.0, "_ride_code_support": true, "rental_uris": {}}, {"station_id": "260", "name": "371 - Paseo de las Americas", "physical_configuration": "SMARTLITMAPFRAME", "lat": -34.5530794109, "lon": -58.43522348866, "altitude": 0.0, "address": "Av. Pres Figueroa Alcorta 6400", "post_code": "11111", "capacity": 12, "is_charging_station": false, "rental_methods": ["KEY", "TRANSITCARD", "PHONE"], "groups": ["BELGRANO"], "obcn": "", "nearby_distance": 1000.0, "_ride_code_support": true, "rental_uris": {}}, {"station_id": "261", "name": "272 - Plaza Bruno Giordano", "physical_configuration": "SMARTLITMAPFRAME", "lat": -34.616151, "lon": -58.440584, "altitude": 0.0, "address": "Bruno Giordano&Neuquen", "post_code": "11111", "capacity": 16, "is_charging_station": false, "rental_methods": ["KEY", "TRANSITCARD", "PHONE"], "groups": ["CABALLITO"], "obcn": "", "nearby_distance": 1000.0, "_ride_code_support": true, "rental_uris": {}}, {"station_id": "262", "name": "349 - Plaza Saenz Pe\u00f1a", "physical_configuration": "SMARTLITMAPFRAME", "lat": -34.6097088334705, "lon": -58.46729693359809, "altitude": 0.0, "address": "Andr\u00e9s Lamas 1699", "cross_street": "Andr\u00e9s Lamas & Remedios de Escalada de San Mart\u00edn", "post_code": "11111", "capacity": 15, "is_charging_station": false, "rental_methods": ["KEY", "TRANSITCARD", "PHONE"], "groups": ["VILLA GENERAL MITRE"], "obcn": "", "nearby_distance": 1000.0, "_ride_code_support": true, "rental_uris": {}}, {"station_id": "263", "name": "270 - PLAZA DEL ANGEL GRIS", "physical_configuration": "SMARTLITMAPFRAME", "lat": -34.622003, "lon": -58.457555, "altitude": 0.0, "address": "Calcena & Avellaneda Av.", "post_code": "1111", "capacity": 20, "is_charging_station": false, "rental_methods": ["KEY", "TRANSITCARD", "PHONE"], "groups": ["FLORES"], "obcn": "", "nearby_distance": 1000.0, "_ride_code_support": true, "rental_uris": {}}, {"station_id": "264", "name": "283 - BALBIN II", "physical_configuration": "SMARTLITMAPFRAME", "lat": -34.5559308, "lon": -58.4812325, "altitude": 0.0, "address": "Av. Dr. Ricardo Balb\u00edn y Cris\u00f3logo Larralde", "post_code": "1111", "capacity": 16, "is_charging_station": false, "rental_methods": ["KEY", "TRANSITCARD", "PHONE"], "groups": ["SAAVEDRA"], "obcn": "", "nearby_distance": 1000.0, "_ride_code_support": true, "rental_uris": {}}, {"station_id": "265", "name": "361 - Plaza Don Segundo Sombra", "physical_configuration": "SMARTLITMAPFRAME", "lat": -34.64196, "lon": -58.4505, "altitude": 0.0, "address": "2347 Santander", "post_code": "1111", "capacity": 28, "is_charging_station": false, "rental_methods": ["KEY", "TRANSITCARD", "PHONE"], "groups": ["FLORES"], "obcn": "", "nearby_distance": 1000.0, "_ride_code_support": true, "rental_uris": {}}, {"station_id": "267", "name": "315 - BEIRO Y SAN MART\u00cdN", "physical_configuration": "SMARTLITMAPFRAME", "lat": -34.5976121, "lon": -58.4985424, "altitude": 0.0, "address": "3209 Av. Francisco Beiro", "cross_street": "3209 Av. Francisco Beiro", "post_code": "1111", "capacity": 16, "is_charging_station": false, "rental_methods": ["KEY", "TRANSITCARD", "PHONE"], "groups": ["VILLA DEVOTO"], "obcn": "", "nearby_distance": 1000.0, "_ride_code_support": true, "rental_uris": {}}, {"station_id": "268", "name": "399 - GARCIA DEL RIO", "physical_configuration": "SMARTLITMAPFRAME", "lat": -34.5503, "lon": -58.477, "altitude": 0.0, "address": "Av. Garc\u00eda del R\u00edo 3182", "post_code": "1111", "capacity": 35, "is_charging_station": false, "rental_methods": ["KEY", "TRANSITCARD", "PHONE"], "groups": ["SAAVEDRA"], "obcn": "", "nearby_distance": 1000.0, "_ride_code_support": true, "rental_uris": {}}, {"station_id": "269", "name": "260 - SAN MIGUEL DE GARICOITS", "physical_configuration": "SMARTLITMAPFRAME", "lat": -34.577329, "lon": -58.457799, "altitude": 0.0, "address": "Delgado & Loreto, Virrey", "post_code": "1111", "capacity": 18, "is_charging_station": false, "rental_methods": ["KEY", "TRANSITCARD", "PHONE"], "groups": ["COLEGIALES"], "obcn": "", "nearby_distance": 1000.0, "_ride_code_support": true, "rental_uris": {}}, {"station_id": "270", "name": "370 - Beauchef", "physical_configuration": "SMARTLITMAPFRAME", "lat": -34.640114, "lon": -58.43026, "altitude": 0.0, "address": "1995 Beauchef", "post_code": "1111", "capacity": 27, "is_charging_station": false, "rental_methods": ["KEY", "TRANSITCARD", "PHONE"], "groups": ["PARQUE CHACABUCO"], "obcn": "", "nearby_distance": 1000.0, "_ride_code_support": true, "rental_uris": {}}, {"station_id": "271", "name": "365 - Venancio Flores", "physical_configuration": "SMARTLITMAPFRAME", "lat": -34.629967, "lon": -58.473725, "altitude": 0.0, "address": "Venancio Flores 3170", "post_code": "11111", "capacity": 20, "is_charging_station": false, "rental_methods": ["KEY", "TRANSITCARD", "PHONE"], "groups": ["FLORES"], "obcn": "", "nearby_distance": 1000.0, "_ride_code_support": true, "rental_uris": {}}, {"station_id": "273", "name": "223 - GAINZA", "physical_configuration": "SMARTLITMAPFRAME", "lat": -34.616758, "lon": -58.446751, "altitude": 0.0, "address": "494 Gainza, Martin De, Gral.", "post_code": "1111", "capacity": 15, "is_charging_station": false, "rental_methods": ["KEY", "TRANSITCARD", "PHONE"], "groups": ["CABALLITO"], "obcn": "", "nearby_distance": 1000.0, "_ride_code_support": true, "rental_uris": {}}, {"station_id": "275", "name": "256 - PLAZA NORUEGA", "physical_configuration": "SMARTLITMAPFRAME", "lat": -34.562277, "lon": -58.459289, "altitude": 0.0, "address": "Amenabar y Mendoza", "post_code": "1111", "capacity": 20, "is_charging_station": false, "rental_methods": ["KEY", "TRANSITCARD", "PHONE"], "groups": ["BELGRANO"], "obcn": "", "nearby_distance": 1000.0, "_ride_code_support": true, "rental_uris": {}}, {"station_id": "277", "name": "292 - PLAZA BOLIVIA", "physical_configuration": "SMARTLITMAPFRAME", "lat": -34.563539, "lon": -58.436115, "altitude": 0.0, "address": "Olleros Av. & Del Libertador Av.", "post_code": "1111", "capacity": 18, "is_charging_station": false, "rental_methods": ["KEY", "TRANSITCARD", "PHONE"], "groups": ["PALERMO"], "obcn": "", "nearby_distance": 1000.0, "_ride_code_support": true, "rental_uris": {}}, {"station_id": "278", "name": "233 - MONROE", "physical_configuration": "SMARTLITMAPFRAME", "lat": -34.564122, "lon": -58.469813, "altitude": 0.0, "address": "2519 Superi", "post_code": "1111", "capacity": 16, "is_charging_station": false, "rental_methods": ["KEY", "TRANSITCARD", "PHONE"], "groups": ["COGHLAN"], "obcn": "", "nearby_distance": 1000.0, "_ride_code_support": true, "rental_uris": {}}, {"station_id": "280", "name": "222 - SIMON BOLIVAR", "physical_configuration": "SMARTLITMAPFRAME", "lat": -34.633528, "lon": -58.449379, "altitude": 0.0, "address": "1701 Fernandez Moreno, Baldomero", "post_code": "1111", "capacity": 28, "is_charging_station": false, "rental_methods": ["KEY", "TRANSITCARD", "PHONE"], "groups": ["PARQUE CHACABUCO"], "obcn": "", "nearby_distance": 1000.0, "_ride_code_support": true, "rental_uris": {}}, {"station_id": "281", "name": "350 - Plaza Irlanda", "physical_configuration": "SMARTLITMAPFRAME", "lat": -34.613778, "lon": -58.458315, "altitude": 0.0, "address": "Av. Gaona 2200", "post_code": "1111", "capacity": 24, "is_charging_station": false, "rental_methods": ["KEY", "TRANSITCARD", "PHONE"], "groups": ["CABALLITO"], "obcn": "", "nearby_distance": 1000.0, "_ride_code_support": true, "rental_uris": {}}, {"station_id": "284", "name": "229 - RIGLOS", "physical_configuration": "SMARTLITMAPFRAME", "lat": -34.631018, "lon": -58.435056, "altitude": 0.0, "address": "1019 Riglos", "post_code": "1111", "capacity": 20, "is_charging_station": false, "rental_methods": ["KEY", "TRANSITCARD", "PHONE"], "groups": ["PARQUE CHACABUCO"], "obcn": "", "nearby_distance": 1000.0, "_ride_code_support": true, "rental_uris": {}}, {"station_id": "289", "name": "255 - BARRANCAS DE BELGRANO", "physical_configuration": "SMARTLITMAPFRAME", "lat": -34.559801, "lon": -58.448314, "altitude": 0.0, "address": "Sucre, Antonio Jose De, Mcal. Y Vertiz Virrey Av.", "post_code": "1111", "capacity": 24, "is_charging_station": false, "rental_methods": ["KEY", "TRANSITCARD", "PHONE"], "groups": ["BELGRANO"], "obcn": "", "nearby_distance": 1000.0, "_ride_code_support": true, "rental_uris": {}}, {"station_id": "291", "name": "244 - UADE", "physical_configuration": "SMARTLITMAPFRAME", "lat": -34.617247, "lon": -58.381627, "altitude": 0.0, "address": "Lima 750", "post_code": "1111", "capacity": 16, "is_charging_station": false, "rental_methods": ["KEY", "TRANSITCARD", "PHONE"], "groups": ["MONSERRAT"], "obcn": "", "nearby_distance": 1609.34, "_ride_code_support": true, "rental_uris": {}}, {"station_id": "299", "name": "221 - CULPINA", "physical_configuration": "SMARTLITMAPFRAME", "lat": -34.631705, "lon": -58.466143, "altitude": 0.0, "address": "Culpina 121", "post_code": "11111", "capacity": 19, "is_charging_station": false, "rental_methods": ["KEY", "TRANSITCARD", "PHONE"], "groups": ["FLORES"], "obcn": "", "nearby_distance": 1000.0, "_ride_code_support": true, "rental_uris": {}}, {"station_id": "301", "name": "309 - UTN II", "physical_configuration": "SMARTLITMAPFRAME", "lat": -34.66036165776025, "lon": -58.4676386893849, "altitude": 0.0, "address": "Saraza y Mozart", "post_code": "1407", "capacity": 19, "is_charging_station": false, "rental_methods": ["KEY", "TRANSITCARD", "PHONE"], "groups": ["VILLA SOLDATI"], "obcn": "", "nearby_distance": 1000.0, "_ride_code_support": true, "rental_uris": {}}, {"station_id": "302", "name": "340 - PLAZA NUEVA POMPEYA", "physical_configuration": "SMARTLITMAPFRAME", "lat": -34.6518464, "lon": -58.415771, "altitude": 0.0, "address": "3817 Traful", "post_code": "1111", "capacity": 16, "is_charging_station": false, "rental_methods": ["KEY", "TRANSITCARD", "PHONE"], "groups": ["NUEVA POMPEYA"], "obcn": "", "nearby_distance": 144840.6, "_ride_code_support": true, "rental_uris": {}}, {"station_id": "304", "name": "395 - Agronomia II", "physical_configuration": "SMARTLITMAPFRAME", "lat": -34.5893, "lon": -58.4848, "altitude": 0.0, "address": "Av. Francisco Beir\u00f3 2120", "post_code": "1111", "capacity": 20, "is_charging_station": false, "rental_methods": ["KEY", "TRANSITCARD", "PHONE"], "groups": ["AGRONOMIA"], "obcn": "", "nearby_distance": 1000.0, "_ride_code_support": true, "rental_uris": {}}, {"station_id": "307", "name": "341 - COMUNA 4", "physical_configuration": "SMARTLITMAPFRAME", "lat": -34.6499971, "lon": -58.42477299999999, "altitude": 0.0, "address": "AV PERITO MORENO 2881", "cross_street": ".", "post_code": "C1437", "capacity": 12, "is_charging_station": false, "rental_methods": ["KEY", "TRANSITCARD", "PHONE"], "groups": ["NUEVA POMPEYA"], "obcn": "", "nearby_distance": 1000.0, "_ride_code_support": true, "rental_uris": {}}, {"station_id": "308", "name": "251 - Solar de la Abad\u00eda", "physical_configuration": "SMARTLITMAPFRAME", "lat": -34.567633, "lon": -58.436752, "altitude": 0.0, "address": "Maure 1819", "post_code": "11111", "capacity": 28, "is_charging_station": false, "rental_methods": ["KEY", "TRANSITCARD", "PHONE"], "groups": ["PALERMO"], "obcn": "", "nearby_distance": 1000.0, "_ride_code_support": true, "rental_uris": {}}, {"station_id": "309", "name": "298 - PLAZA DR. JUAN B. TERAN", "physical_configuration": "SMARTLITMAPFRAME", "lat": -34.62141207128675, "lon": -58.51978098730658, "altitude": 0.0, "address": "Nogoya 5525", "post_code": "11111", "capacity": 16, "is_charging_station": false, "rental_methods": ["KEY", "TRANSITCARD", "PHONE"], "groups": ["VILLA REAL"], "obcn": "", "nearby_distance": 1000.0, "_ride_code_support": true, "rental_uris": {}}, {"station_id": "310", "name": "356 - ESTACI\u00d3N LUGANO", "physical_configuration": "SMARTLITMAPFRAME", "lat": -34.67948324169569, "lon": -58.474248522546844, "altitude": 0.0, "address": "Martiniano Leguizam\u00f3n 4401", "post_code": "11111", "capacity": 12, "is_charging_station": false, "rental_methods": ["KEY", "TRANSITCARD", "PHONE"], "groups": ["VILLA LUGANO"], "obcn": "", "nearby_distance": 1000.0, "_ride_code_support": true, "rental_uris": {}}, {"station_id": "311", "name": "213 - Hospital Alvear", "physical_configuration": "SMARTLITMAPFRAME", "lat": -34.5972098, "lon": -58.47421143, "altitude": 0.0, "address": "Av. Warnes 2626", "post_code": "11111", "capacity": 16, "is_charging_station": false, "rental_methods": ["KEY", "TRANSITCARD", "PHONE"], "groups": ["PATERNAL"], "obcn": "", "nearby_distance": 1000.0, "_ride_code_support": true, "rental_uris": {}}, {"station_id": "316", "name": "205 - SAN MARTIN", "physical_configuration": "SMARTLITMAPFRAME", "lat": -34.605567, "lon": -58.453475, "altitude": 0.0, "address": "1471 Cucha Cucha", "post_code": "1111", "capacity": 28, "is_charging_station": false, "rental_methods": ["KEY", "TRANSITCARD", "PHONE"], "groups": ["VILLA CRESPO"], "obcn": "", "nearby_distance": 1000.0, "_ride_code_support": true, "rental_uris": {}}, {"station_id": "318", "name": "285 - ESPINOSA", "physical_configuration": "SMARTLITMAPFRAME", "lat": -34.603936, "lon": -58.457317, "altitude": 0.0, "address": "1785 Espinosa", "post_code": "1111", "capacity": 20, "is_charging_station": false, "rental_methods": ["KEY", "TRANSITCARD", "PHONE"], "groups": ["VILLA CRESPO"], "obcn": "", "nearby_distance": 1000.0, "_ride_code_support": true, "rental_uris": {}}, {"station_id": "322", "name": "289 - MONTA\u00d1ESES", "physical_configuration": "SMARTLITMAPFRAME", "lat": -34.551304, "lon": -58.454181, "altitude": 0.0, "address": "2786 Monta\u00f1eses", "post_code": "1111", "capacity": 20, "is_charging_station": false, "rental_methods": ["KEY", "TRANSITCARD", "PHONE"], "groups": ["BELGRANO"], "obcn": "", "nearby_distance": 1000.0, "_ride_code_support": true, "rental_uris": {}}, {"station_id": "323", "name": "240 - ECHEVERRIA", "physical_configuration": "SMARTLITMAPFRAME", "lat": -34.565409, "lon": -58.459298, "altitude": 0.0, "address": "1981 Vidal", "post_code": "1111", "capacity": 24, "is_charging_station": false, "rental_methods": ["KEY", "TRANSITCARD", "PHONE"], "groups": ["BELGRANO"], "obcn": "", "nearby_distance": 1000.0, "_ride_code_support": true, "rental_uris": {}}, {"station_id": "327", "name": "366 - VILLA OL\u00cdMPICA", "physical_configuration": "SMARTLITMAPFRAME", "lat": -34.677130515662185, "lon": -58.454286054001386, "altitude": 0.0, "address": "Escalada 4347", "cross_street": ".", "post_code": "1111", "capacity": 12, "is_charging_station": false, "rental_methods": ["KEY", "TRANSITCARD", "PHONE"], "groups": ["VILLA LUGANO"], "obcn": "", "nearby_distance": 1000.0, "_ride_code_support": true, "rental_uris": {}}, {"station_id": "329", "name": "100 - Plaza Gurruchaga", "physical_configuration": "SMARTLITMAPFRAME", "lat": -34.593141, "lon": -58.435187, "altitude": 0.0, "address": "1078 Gurruchaga", "post_code": "1111", "capacity": 20, "is_charging_station": false, "rental_methods": ["KEY", "TRANSITCARD", "PHONE"], "groups": ["VILLA CRESPO"], "obcn": "", "nearby_distance": 1000.0, "_ride_code_support": true, "rental_uris": {}}, {"station_id": "330", "name": "148 -La Paternal", "physical_configuration": "SMARTLITMAPFRAME", "lat": -34.6008306, "lon": -58.4721271, "altitude": 0.0, "address": "PUNTA  ARENAS  1798", "cross_street": "PUNTA  ARENAS  1798", "post_code": "C1416", "capacity": 20, "is_charging_station": false, "rental_methods": ["KEY", "TRANSITCARD", "PHONE"], "groups": ["PATERNAL"], "obcn": "", "nearby_distance": 1000.0, "_ride_code_support": true, "rental_uris": {}}, {"station_id": "333", "name": "203 - Beiro", "physical_configuration": "SMARTLITMAPFRAME", "lat": -34.6008, "lon": -58.50335, "altitude": 0.0, "address": "Beiro 3572, CABA", "post_code": "1111", "capacity": 20, "is_charging_station": false, "rental_methods": ["KEY", "TRANSITCARD", "PHONE"], "groups": ["DEVOTO"], "obcn": "", "nearby_distance": 1000.0, "_ride_code_support": true, "rental_uris": {}}, {"station_id": "335", "name": "206 - Galicia", "physical_configuration": "SMARTLITMAPFRAME", "lat": -34.615945, "lon": -58.47098, "altitude": 0.0, "address": "2502 Galicia", "post_code": "1111", "capacity": 28, "is_charging_station": false, "rental_methods": ["KEY", "TRANSITCARD", "PHONE"], "groups": ["VILLA GENERAL MITRE"], "obcn": "", "nearby_distance": 1000.0, "_ride_code_support": true, "rental_uris": {}}, {"station_id": "336", "name": "207 - PLAZA ARENALES", "physical_configuration": "SMARTLITMAPFRAME", "lat": -34.5997308, "lon": -58.5111458, "altitude": 0.0, "address": "Nueva York 3949", "post_code": "1111", "capacity": 28, "is_charging_station": false, "rental_methods": ["KEY", "TRANSITCARD", "PHONE"], "groups": ["DEVOTO"], "obcn": "", "nearby_distance": 1000.0, "_ride_code_support": true, "rental_uris": {}}, {"station_id": "340", "name": "359 - PLAZA BALCARCE", "physical_configuration": "SMARTLITMAPFRAME", "lat": -34.54754, "lon": -58.467844, "altitude": 0.0, "address": "Jaramillo 2312", "post_code": "1111", "capacity": 20, "is_charging_station": false, "rental_methods": ["KEY", "TRANSITCARD", "PHONE"], "groups": ["Nu\u00f1ez"], "obcn": "", "nearby_distance": 1000.0, "_ride_code_support": true, "rental_uris": {}}, {"station_id": "342", "name": "218 - Campana", "physical_configuration": "SMARTLITMAPFRAME", "lat": -34.616813, "lon": -58.484297, "altitude": 0.0, "address": "1523 Campana", "post_code": "1111", "capacity": 20, "is_charging_station": false, "rental_methods": ["KEY", "TRANSITCARD", "PHONE"], "groups": ["VILLA SANTA RITA"], "obcn": "", "nearby_distance": 1000.0, "_ride_code_support": true, "rental_uris": {}}, {"station_id": "348", "name": "231 - Margari\u00f1os Cervantes", "physical_configuration": "SMARTLITMAPFRAME", "lat": -34.610482, "lon": -58.474369, "altitude": 0.0, "address": "2465 Margari\u00f1os Cervantes", "post_code": "1111", "capacity": 12, "is_charging_station": false, "rental_methods": ["KEY", "TRANSITCARD", "PHONE"], "groups": ["VILLA GENERAL MITRE"], "obcn": "", "nearby_distance": 1000.0, "_ride_code_support": true, "rental_uris": {}}, {"station_id": "349", "name": "232 - Sucre y Martinez", "physical_configuration": "SMARTLITMAPFRAME", "lat": -34.5703869, "lon": -58.4663122, "altitude": 0.0, "address": "Mcal. Antonio Jos\u00e9 de Sucre 3515", "post_code": "C1430", "capacity": 16, "is_charging_station": false, "rental_methods": ["KEY", "TRANSITCARD", "PHONE"], "groups": ["BELGRANO"], "obcn": "", "nearby_distance": 1000.0, "_ride_code_support": true, "rental_uris": {}}, {"station_id": "353", "name": "237 - Madero Office", "physical_configuration": "SMARTLITMAPFRAME", "lat": -34.599036, "lon": -58.364695, "altitude": 0.0, "address": "367 Sanchez De Thompson, Mariquita", "post_code": "1111", "capacity": 28, "is_charging_station": false, "rental_methods": ["KEY", "TRANSITCARD", "PHONE"], "groups": ["PUERTO MADERO"], "obcn": "", "nearby_distance": 1609.34, "_ride_code_support": true, "rental_uris": {}}, {"station_id": "355", "name": "242 - Plazoleta Rafael del Riego", "physical_configuration": "SMARTLITMAPFRAME", "lat": -34.567483, "lon": -58.446381, "altitude": 0.0, "address": "o\u00b4higins 1327", "post_code": "1111", "capacity": 16, "is_charging_station": false, "rental_methods": ["KEY", "TRANSITCARD", "PHONE"], "groups": ["PALERMO"], "obcn": "", "nearby_distance": 1000.0, "_ride_code_support": true, "rental_uris": {}}, {"station_id": "358", "name": "249 - Balb\u00edn", "physical_configuration": "SMARTLITMAPFRAME", "lat": -34.561486, "lon": -58.465586, "altitude": 0.0, "address": "2519 Conesa", "post_code": "1111", "capacity": 20, "is_charging_station": false, "rental_methods": ["KEY", "TRANSITCARD", "PHONE"], "groups": ["BELGRANO"], "obcn": "", "nearby_distance": 1000.0, "_ride_code_support": true, "rental_uris": {}}, {"station_id": "359", "name": "250 - Fleni", "physical_configuration": "SMARTLITMAPFRAME", "lat": -34.555602, "lon": -58.450479, "altitude": 0.0, "address": "2292 Monta\u00f1eses", "post_code": "1111", "capacity": 19, "is_charging_station": false, "rental_methods": ["KEY", "TRANSITCARD", "PHONE"], "groups": ["BELGRANO"], "obcn": "", "nearby_distance": 1000.0, "_ride_code_support": true, "rental_uris": {}}, {"station_id": "361", "name": "258 - Plaza J.J. Paso", "physical_configuration": "SMARTLITMAPFRAME", "lat": -34.569187, "lon": -58.453608, "altitude": 0.0, "address": "1399 Moldes", "post_code": "1111", "capacity": 20, "is_charging_station": false, "rental_methods": ["KEY", "TRANSITCARD", "PHONE"], "groups": ["COLEGIALES"], "obcn": "", "nearby_distance": 1000.0, "_ride_code_support": true, "rental_uris": {}}, {"station_id": "362", "name": "262 - Holmberg", "physical_configuration": "SMARTLITMAPFRAME", "lat": -34.566032515757676, "lon": -58.479879186508185, "altitude": 0.0, "address": "Holmberg 2819 y Nahuel Huapi", "post_code": "C1430", "capacity": 12, "is_charging_station": false, "rental_methods": ["KEY", "TRANSITCARD", "PHONE"], "groups": ["VILLA URQUIZA"], "obcn": "", "nearby_distance": 1000.0, "_ride_code_support": true, "rental_uris": {}}, {"station_id": "363", "name": "354 - Jos\u00e9 Mart\u00ed", "physical_configuration": "SMARTLITMAPFRAME", "lat": -34.6439, "lon": -58.463114, "altitude": 0.0, "address": "Eva Per\u00f3n 3321", "post_code": "1111", "capacity": 16, "is_charging_station": false, "rental_methods": ["KEY", "TRANSITCARD", "PHONE"], "groups": ["FLORES"], "obcn": "", "nearby_distance": 1000.0, "_ride_code_support": true, "rental_uris": {}}, {"station_id": "364", "name": "381 - Matienzo Y Arce", "physical_configuration": "SMARTLITMAPFRAME", "lat": -34.570161, "lon": -58.43558, "altitude": 0.0, "address": "Teniente Benjam\u00edn Matienzo 1998", "post_code": "C1426", "capacity": 27, "is_charging_station": false, "rental_methods": ["KEY", "TRANSITCARD", "PHONE"], "groups": ["PALERMO"], "obcn": "", "nearby_distance": 1000.0, "_ride_code_support": true, "rental_uris": {}}, {"station_id": "366", "name": "360 - Plaza Ramon Falcon", "physical_configuration": "SMARTLITMAPFRAME", "lat": -34.6352784, "lon": -58.4825327, "altitude": 0.0, "address": "Cnel. Ram\u00f3n L. Falc\u00f3n 3992", "post_code": "C1407", "capacity": 12, "is_charging_station": false, "rental_methods": ["KEY", "TRANSITCARD", "PHONE"], "groups": ["VELEZ SARFIELD"], "obcn": "", "nearby_distance": 1609.34, "_ride_code_support": true, "rental_uris": {}}, {"station_id": "367", "name": "287 - Belaustegui", "physical_configuration": "SMARTLITMAPFRAME", "lat": -34.616659000738366, "lon": -58.47770598650817, "altitude": 0.0, "address": "Belaustegui 2910", "post_code": "C1416", "capacity": 16, "is_charging_station": false, "rental_methods": ["KEY", "TRANSITCARD", "PHONE"], "groups": ["VILLA SANTA RITA"], "obcn": "", "nearby_distance": 1609.34, "_ride_code_support": true, "rental_uris": {}}, {"station_id": "368", "name": "378 - AGRONOMIA", "physical_configuration": "SMARTLITMAPFRAME", "lat": -34.59807, "lon": -58.482079, "altitude": 0.0, "address": "4351 San Martin", "post_code": "1111", "capacity": 12, "is_charging_station": false, "rental_methods": ["KEY", "TRANSITCARD", "PHONE"], "groups": ["AGRONOMIA"], "obcn": "", "nearby_distance": 1000.0, "_ride_code_support": true, "rental_uris": {}}, {"station_id": "369", "name": "304 - Navarro", "physical_configuration": "SMARTLITMAPFRAME", "lat": -34.592244, "lon": -58.491797, "altitude": 0.0, "address": "Navarro 2625", "post_code": "1111", "capacity": 16, "is_charging_station": false, "rental_methods": ["KEY", "TRANSITCARD", "PHONE"], "groups": ["AGRONOMIA"], "obcn": "", "nearby_distance": 1.0, "_ride_code_support": true, "rental_uris": {}}, {"station_id": "370", "name": "305 - Plaza Martin Rodriguez", "physical_configuration": "SMARTLITMAPFRAME", "lat": -34.590964, "lon": -58.500336, "altitude": 0.0, "address": "3016 Pareja", "post_code": "1111", "capacity": 20, "is_charging_station": false, "rental_methods": ["KEY", "TRANSITCARD", "PHONE"], "groups": ["AGRONOMIA"], "obcn": "", "nearby_distance": 1000.0, "_ride_code_support": true, "rental_uris": {}}, {"station_id": "371", "name": "269 - Plaza De La Misericordia", "physical_configuration": "SMARTLITMAPFRAME", "lat": -34.6317, "lon": -58.45534, "altitude": 0.0, "address": "LAUTARO 400", "post_code": "1111", "capacity": 12, "is_charging_station": false, "rental_methods": ["KEY", "TRANSITCARD", "PHONE"], "groups": ["FLORES"], "obcn": "", "nearby_distance": 1000.0, "_ride_code_support": true, "rental_uris": {}}, {"station_id": "372", "name": "322 - MART\u00cd Y DIRECTORIO", "physical_configuration": "SMARTLITMAPFRAME", "lat": -34.636406, "lon": -58.470136, "altitude": 0.0, "address": "404 Marti, Jose", "post_code": "1111", "capacity": 19, "is_charging_station": false, "rental_methods": ["KEY", "TRANSITCARD", "PHONE"], "groups": ["FLORES"], "obcn": "", "nearby_distance": 1000.0, "_ride_code_support": true, "rental_uris": {}}, {"station_id": "373", "name": "265 - Plaza Exodo Juje\u00f1o", "physical_configuration": "SMARTLITMAPFRAME", "lat": -34.582336918286785, "lon": -58.48108314683206, "altitude": 0.0, "address": "Liverpool 2812", "post_code": "1111", "capacity": 20, "is_charging_station": false, "rental_methods": ["KEY", "TRANSITCARD", "PHONE"], "groups": ["PARQUE CHAS"], "obcn": "", "nearby_distance": 1609.34, "_ride_code_support": true, "rental_uris": {}}, {"station_id": "374", "name": "367 - Eva Per\u00f3n", "physical_configuration": "SMARTLITMAPFRAME", "lat": -34.6471, "lon": -58.4698, "altitude": 0.0, "address": "Primera Junta 3898", "cross_street": "MARIANO ACOSTA Y PRIMERA JUNTA", "post_code": "1111", "capacity": 16, "is_charging_station": false, "rental_methods": ["KEY", "TRANSITCARD", "PHONE"], "groups": ["PARQUE AVELLANEDA"], "obcn": "", "nearby_distance": 1000.0, "_ride_code_support": true, "rental_uris": {}}, {"station_id": "375", "name": "301 - Arregui Y Terrada", "physical_configuration": "SMARTLITMAPFRAME", "lat": -34.604597356692906, "lon": -58.48481211614322, "altitude": 0.0, "address": "2793 Arregui", "post_code": "1111", "capacity": 16, "is_charging_station": false, "rental_methods": ["KEY", "TRANSITCARD", "PHONE"], "groups": ["VILLA DEL PARQUE"], "obcn": "", "nearby_distance": 1609.34, "_ride_code_support": true, "rental_uris": {}}, {"station_id": "376", "name": "324 - Las Victorias", "physical_configuration": "SMARTLITMAPFRAME", "lat": -34.6274033, "lon": -58.48811179999999, "altitude": 0.0, "address": "Av. Gaona 4660", "post_code": "C1407", "capacity": 24, "is_charging_station": false, "rental_methods": ["KEY", "TRANSITCARD", "PHONE"], "groups": ["FLORESTA"], "obcn": "", "nearby_distance": 1000.0, "_ride_code_support": true, "rental_uris": {}}, {"station_id": "378", "name": "215 - HOSPITAL ALVAREZ", "physical_configuration": "SMARTLITMAPFRAME", "lat": -34.623123, "lon": -58.468287, "altitude": 0.0, "address": "Bolivia 683", "post_code": "1111", "capacity": 19, "is_charging_station": false, "rental_methods": ["KEY", "TRANSITCARD", "PHONE"], "groups": ["FLORES"], "obcn": "", "nearby_distance": 1000.0, "_ride_code_support": true, "rental_uris": {}}, {"station_id": "379", "name": "390 - De Los Ombues", "physical_configuration": "SMARTLITMAPFRAME", "lat": -34.5602, "lon": -58.4281, "altitude": 0.0, "address": "Av. de los Omb\u00faes 300", "post_code": "1111", "capacity": 20, "is_charging_station": false, "rental_methods": ["KEY", "TRANSITCARD", "PHONE"], "groups": ["PALERMO"], "obcn": "", "nearby_distance": 1000.0, "_ride_code_support": true, "rental_uris": {}}, {"station_id": "381", "name": "274 - Gavil\u00e1n", "physical_configuration": "SMARTLITMAPFRAME", "lat": -34.6162466, "lon": -58.4658836, "altitude": 0.0, "address": "Gavil\u00e1n 1200", "post_code": "111", "capacity": 16, "is_charging_station": false, "rental_methods": ["KEY", "TRANSITCARD", "PHONE"], "groups": ["VILLA GENERAL MITRE"], "obcn": "", "nearby_distance": 1000.0, "_ride_code_support": true, "rental_uris": {}}, {"station_id": "382", "name": "204 - Biarritz", "physical_configuration": "SMARTLITMAPFRAME", "lat": -34.60543081369964, "lon": -58.477255218997016, "altitude": 0.0, "address": "Biarritz 2403", "post_code": "11111", "capacity": 16, "is_charging_station": false, "rental_methods": ["KEY", "TRANSITCARD", "PHONE"], "groups": ["VILLA DEL PARQUE"], "obcn": "", "nearby_distance": 1000.0, "_ride_code_support": true, "rental_uris": {}}, {"station_id": "383", "name": "263 - Plaza Echeverria", "physical_configuration": "SMARTLITMAPFRAME", "lat": -34.5717986, "lon": -58.48954089999999, "altitude": 0.0, "address": "Av. Triunvirato 5100 y Nahuel Huapi 5150", "cross_street": "Plaza Echeverria", "post_code": "C1431", "capacity": 19, "is_charging_station": false, "rental_methods": ["KEY", "TRANSITCARD", "PHONE"], "groups": ["VILLA URQUIZA"], "obcn": "", "nearby_distance": 1000.0, "_ride_code_support": true, "rental_uris": {}}, {"station_id": "384", "name": "267 - Plaza 25 De Agosto", "physical_configuration": "SMARTLITMAPFRAME", "lat": -34.57951881156862, "lon": -58.46183473148808, "altitude": 0.0, "address": "14 de julio de 1194", "post_code": "1111", "capacity": 18, "is_charging_station": false, "rental_methods": ["KEY", "TRANSITCARD", "PHONE"], "groups": ["VILLA ORTUZAR"], "obcn": "", "nearby_distance": 1609.34, "_ride_code_support": true, "rental_uris": {}}, {"station_id": "385", "name": "268 - Plaza Arist\u00f3bulo Del Valle", "physical_configuration": "SMARTLITMAPFRAME", "lat": -34.606159914753725, "lon": -58.493141345207654, "altitude": 0.0, "address": "Campana & Marcos Sastre  ", "cross_street": "Marcos Sastre & Campana", "post_code": "1111", "capacity": 16, "is_charging_station": false, "rental_methods": ["KEY", "TRANSITCARD", "PHONE"], "groups": ["VILLA DEL PARQUE"], "obcn": "", "nearby_distance": 1000.0, "_ride_code_support": true, "rental_uris": {}}, {"station_id": "386", "name": "277 - Coghlan", "physical_configuration": "SMARTLITMAPFRAME", "lat": -34.5654, "lon": -58.4759, "altitude": 0.0, "address": "2647 Estomba", "post_code": "1111", "capacity": 8, "is_charging_station": false, "rental_methods": ["KEY", "TRANSITCARD", "PHONE"], "groups": ["COGHLAN"], "obcn": "", "nearby_distance": 1000.0, "_ride_code_support": true, "rental_uris": {}}, {"station_id": "387", "name": "278 - Donato Alvarez", "physical_configuration": "SMARTLITMAPFRAME", "lat": -34.602028, "lon": -58.465568, "altitude": 0.0, "address": "1540 Garcia, Juan Agustin", "post_code": "1111", "capacity": 16, "is_charging_station": false, "rental_methods": ["KEY", "TRANSITCARD", "PHONE"], "groups": ["PATERNAL"], "obcn": "", "nearby_distance": 1000.0, "_ride_code_support": true, "rental_uris": {}}, {"station_id": "392", "name": "297 - TRONADOR Y GARC\u00cdA DEL R\u00cdO", "physical_configuration": "SMARTLITMAPFRAME", "lat": -34.554581, "lon": -58.485381, "altitude": 0.0, "address": "Tronador y Garcia del Rio", "post_code": "1111", "capacity": 16, "is_charging_station": false, "rental_methods": ["KEY", "TRANSITCARD", "PHONE"], "groups": ["COGHLAN"], "obcn": "", "nearby_distance": 1.0, "_ride_code_support": true, "rental_uris": {}}, {"station_id": "393", "name": "300 - Jose Artigas", "physical_configuration": "SMARTLITMAPFRAME", "lat": -34.5902732694463, "lon": -58.466932201858796, "altitude": 0.0, "address": "Av. del Campo 1301", "post_code": "1111", "capacity": 28, "is_charging_station": false, "rental_methods": ["KEY", "TRANSITCARD", "PHONE"], "groups": ["PATERNAL"], "obcn": "", "nearby_distance": 1000.0, "_ride_code_support": true, "rental_uris": {}}, {"station_id": "395", "name": "303 - Huaura", "physical_configuration": "SMARTLITMAPFRAME", "lat": -34.596849288941584, "lon": -58.45327985794869, "altitude": 0.0, "address": "Huaura 1405 y Fitz Roy", "post_code": "1111", "capacity": 16, "is_charging_station": false, "rental_methods": ["KEY", "TRANSITCARD", "PHONE"], "groups": ["VILLA CRESPO"], "obcn": "", "nearby_distance": 1000.0, "_ride_code_support": true, "rental_uris": {}}, {"station_id": "400", "name": "313 - De Los Incas", "physical_configuration": "SMARTLITMAPFRAME", "lat": -34.57899, "lon": -58.46982, "altitude": 0.0, "address": "Av. de los Incas 4138", "post_code": "C1427", "capacity": 20, "is_charging_station": false, "rental_methods": ["KEY", "TRANSITCARD", "PHONE"], "groups": ["VILLA ORTUZAR"], "obcn": "", "nearby_distance": 1000.0, "_ride_code_support": true, "rental_uris": {}}, {"station_id": "403", "name": "316 - Buenos Aires", "physical_configuration": "SMARTLITMAPFRAME", "lat": -34.6446835804428, "lon": -58.39387590287583, "altitude": 0.0, "address": "Suarez 3150", "post_code": "1111", "capacity": 32, "is_charging_station": false, "rental_methods": ["KEY", "TRANSITCARD", "PHONE"], "groups": ["BARRACAS"], "obcn": "", "nearby_distance": 1000.0, "_ride_code_support": true, "rental_uris": {}}, {"station_id": "407", "name": "330 - Parque Avellaneda", "physical_configuration": "SMARTLITMAPFRAME", "lat": -34.6424248, "lon": -58.478266, "altitude": 0.0, "address": "Remedios 3895", "post_code": "C1407", "capacity": 16, "is_charging_station": false, "rental_methods": ["KEY", "TRANSITCARD", "PHONE"], "groups": ["PARQUE AVELLANEDA"], "obcn": "", "nearby_distance": 1000.0, "_ride_code_support": true, "rental_uris": {}}, {"station_id": "408", "name": "364 - CERRETTI Y MANUELA PEDRAZA", "physical_configuration": "SMARTLITMAPFRAME", "lat": -34.56912, "lon": -58.50025, "altitude": 0.0, "address": "Ceretti 3407", "post_code": "1111", "capacity": 16, "is_charging_station": false, "rental_methods": ["KEY", "TRANSITCARD", "PHONE"], "groups": ["VILLA URQUIZA"], "obcn": "", "nearby_distance": 1.0, "_ride_code_support": true, "rental_uris": {}}, {"station_id": "412", "name": "372 - VILLA SOLDATI", "physical_configuration": "SMARTLITMAPFRAME", "lat": -34.6604476, "lon": -58.43201680000001, "altitude": 0.0, "address": "Carlos Mar\u00eda Ram\u00edrez 2510", "post_code": "C1437", "capacity": 12, "is_charging_station": false, "rental_methods": ["KEY", "TRANSITCARD", "PHONE"], "groups": ["VILLA SOLDATI"], "obcn": "", "nearby_distance": 1000.0, "_ride_code_support": true, "rental_uris": {}}, {"station_id": "413", "name": "382 - MERCADO DE HACIENDA MATADEROS", "physical_configuration": "SMARTLITMAPFRAME", "lat": -34.66181712635796, "lon": -58.501330098389026, "altitude": 0.0, "address": "Av. Lisandro de la Torre 2319", "post_code": "C1440", "capacity": 8, "is_charging_station": false, "rental_methods": ["KEY", "TRANSITCARD", "PHONE"], "groups": ["MATADEROS"], "obcn": "", "nearby_distance": 1000.0, "_ride_code_support": true, "rental_uris": {}}, {"station_id": "414", "name": "385 - Franklin", "physical_configuration": "SMARTLITMAPFRAME", "lat": -34.6112804, "lon": -58.4500434, "altitude": 0.0, "address": "Franklin 1100", "post_code": "1111", "capacity": 16, "is_charging_station": false, "rental_methods": ["KEY", "TRANSITCARD", "PHONE"], "groups": ["CABALLITO"], "obcn": "", "nearby_distance": 1000.0, "_ride_code_support": true, "rental_uris": {}}, {"station_id": "416", "name": "257 - Plaza Francisco Ramirez", "physical_configuration": "SMARTLITMAPFRAME", "lat": -34.553262, "lon": -58.469133, "altitude": 0.0, "address": "2700 Pedraza, Manuela", "post_code": "1111", "capacity": 28, "is_charging_station": false, "rental_methods": ["KEY", "TRANSITCARD", "PHONE"], "groups": ["Nu\u00f1ez"], "obcn": "", "nearby_distance": 1000.0, "_ride_code_support": true, "rental_uris": {}}, {"station_id": "417", "name": "127 - PLAZA LEONARDO N. ALEM", "physical_configuration": "SMARTLITMAPFRAME", "lat": -34.57634, "lon": -58.50248, "altitude": 0.0, "address": "Cochrane 2407", "post_code": "1111", "capacity": 20, "is_charging_station": false, "rental_methods": ["KEY", "TRANSITCARD", "PHONE"], "groups": ["VILLA URQUIZA"], "obcn": "", "nearby_distance": 1000.0, "_ride_code_support": true, "rental_uris": {}}, {"station_id": "418", "name": "345 - Plaza Mafalda", "physical_configuration": "SMARTLITMAPFRAME", "lat": -34.5809383, "lon": -58.4445804, "altitude": 0.0, "address": "Conde & Concepci\u00f3n Arenal", "post_code": "1111", "capacity": 15, "is_charging_station": false, "rental_methods": ["KEY", "TRANSITCARD", "PHONE"], "groups": ["COLEGIALES"], "obcn": "", "nearby_distance": 1000.0, "_ride_code_support": true, "rental_uris": {}}, {"station_id": "420", "name": "375 - Ciudad Universitaria I", "physical_configuration": "SMARTLITMAPFRAME", "lat": -34.5446, "lon": -58.4396, "altitude": 0.0, "address": "INTENDENTE GUIRALDES 2160 - PABELL\u00d3N I", "post_code": "1111", "capacity": 16, "is_charging_station": false, "rental_methods": ["KEY", "TRANSITCARD", "PHONE"], "groups": ["BELGRANO"], "obcn": "", "nearby_distance": 1.0, "_ride_code_support": true, "rental_uris": {}}, {"station_id": "422", "name": "379 - PARQUE SARMIENTO II", "physical_configuration": "SMARTLITMAPFRAME", "lat": -34.56454, "lon": -58.50289, "altitude": 0.0, "address": "Alfonsina Storni 3771", "post_code": "1111", "capacity": 16, "is_charging_station": false, "rental_methods": ["KEY", "TRANSITCARD", "PHONE"], "groups": ["SAAVEDRA"], "obcn": "", "nearby_distance": 1.0, "_ride_code_support": true, "rental_uris": {}}, {"station_id": "423", "name": "043 - PLAZA ALBERDI", "physical_configuration": "SMARTLITMAPFRAME", "lat": -34.559255, "lon": -58.487772, "altitude": 0.0, "address": "Cris\u00f3logo Larralde 4544", "post_code": "1111", "capacity": 12, "is_charging_station": false, "rental_methods": ["KEY", "TRANSITCARD", "PHONE"], "groups": ["SAAVEDRA"], "obcn": "", "nearby_distance": 1.0, "_ride_code_support": true, "rental_uris": {}}, {"station_id": "424", "name": "387 - Luna", "physical_configuration": "SMARTLITMAPFRAME", "lat": -34.639807, "lon": -58.39905, "altitude": 0.0, "address": "Luna 301", "post_code": "1111", "capacity": 12, "is_charging_station": false, "rental_methods": ["KEY", "TRANSITCARD", "PHONE"], "groups": ["PARQUE PATRICIOS"], "obcn": "", "nearby_distance": 1000.0, "_ride_code_support": true, "rental_uris": {}}, {"station_id": "425", "name": "394 - Av. La Plata", "physical_configuration": "SMARTLITMAPFRAME", "lat": -34.643012510740405, "lon": -58.42284285277861, "altitude": 0.0, "address": "Av. La Plata 2400", "post_code": "C1437", "capacity": 20, "is_charging_station": false, "rental_methods": ["KEY", "TRANSITCARD", "PHONE"], "groups": ["NUEVA POMPEYA"], "obcn": "", "nearby_distance": 1000.0, "_ride_code_support": true, "rental_uris": {}}, {"station_id": "426", "name": "396 - PLAZA ALBERTI", "physical_configuration": "SMARTLITMAPFRAME", "lat": -34.5557, "lon": -58.4579, "altitude": 0.0, "address": "ARCOS 2665", "post_code": "1111", "capacity": 20, "is_charging_station": false, "rental_methods": ["KEY", "TRANSITCARD", "PHONE"], "groups": ["BELGRANO"], "obcn": "", "nearby_distance": 1000.0, "_ride_code_support": true, "rental_uris": {}}, {"station_id": "427", "name": "397 - PARQUE SANTOJANNI", "physical_configuration": "SMARTLITMAPFRAME", "lat": -34.648402, "lon": -58.5136448, "altitude": 0.0, "address": "ACASSUSO 6373", "post_code": "C1408", "capacity": 16, "is_charging_station": false, "rental_methods": ["KEY", "TRANSITCARD", "PHONE"], "groups": ["LINIERS"], "obcn": "", "nearby_distance": 1000.0, "_ride_code_support": true, "rental_uris": {}}, {"station_id": "428", "name": "225 - HOSPITAL TORNU", "physical_configuration": "SMARTLITMAPFRAME", "lat": -34.587458, "lon": -58.4739506, "altitude": 0.0, "address": "1052 Avalos", "post_code": "1111", "capacity": 20, "is_charging_station": false, "rental_methods": ["KEY", "TRANSITCARD", "PHONE"], "groups": ["PARQUE CHAS"], "obcn": "", "nearby_distance": 1000.0, "_ride_code_support": true, "rental_uris": {}}, {"station_id": "429", "name": "201 - PLAZA EJERCITO DE LOS ANDES", "physical_configuration": "SMARTLITMAPFRAME", "lat": -34.63897407331851, "lon": -58.51010241799404, "altitude": 0.0, "address": "Av. Rivadavia y Albari\u00f1o", "post_code": "1111", "capacity": 16, "is_charging_station": false, "rental_methods": ["KEY", "TRANSITCARD", "PHONE"], "groups": ["VILLA LURO"], "obcn": "", "nearby_distance": 1000.0, "_ride_code_support": true, "rental_uris": {}}, {"station_id": "431", "name": "362 - PARQUE DE LA MEMORIA", "physical_configuration": "SMARTLITMAPFRAME", "lat": -34.542628, "lon": -58.436913, "altitude": 0.0, "address": "Av. Costanera Rafael Obligado 7200", "post_code": "1213", "capacity": 20, "is_charging_station": false, "rental_methods": ["KEY", "TRANSITCARD", "PHONE"], "groups": ["BELGRANO"], "obcn": "", "nearby_distance": 1000.0, "_ride_code_support": true, "rental_uris": {}}, {"station_id": "432", "name": "187 - Jose Maria Moreno", "physical_configuration": "SMARTLITMAPFRAME", "lat": -34.619879, "lon": -58.435801, "altitude": 0.0, "address": "141 Jose Maria Moreno", "post_code": "1111", "capacity": 28, "is_charging_station": false, "rental_methods": ["KEY", "TRANSITCARD", "PHONE"], "groups": ["CABALLITO"], "obcn": "", "nearby_distance": 1000.0, "_ride_code_support": true, "rental_uris": {}}, {"station_id": "433", "name": "273 - Plazoleta Colombia", "physical_configuration": "SMARTLITMAPFRAME", "lat": -34.637697, "lon": -58.373726, "altitude": 0.0, "address": "1619 Brandsen", "post_code": "1111", "capacity": 24, "is_charging_station": false, "rental_methods": ["KEY", "TRANSITCARD", "PHONE"], "groups": ["BARRACAS"], "obcn": "", "nearby_distance": 1000.0, "_ride_code_support": true, "rental_uris": {}}, {"station_id": "434", "name": "247 - PLAZA LUCIO DEMARE", "physical_configuration": "SMARTLITMAPFRAME", "lat": -34.54569, "lon": -58.46514, "altitude": 0.0, "address": "O`Higgins 3750", "post_code": "11111", "capacity": 20, "is_charging_station": false, "rental_methods": ["KEY", "TRANSITCARD", "PHONE"], "groups": ["Nu\u00f1ez"], "obcn": "", "nearby_distance": 1000.0, "_ride_code_support": true, "rental_uris": {}}, {"station_id": "435", "name": "227 -Club Ciudad de Buenos Aires", "physical_configuration": "SMARTLITMAPFRAME", "lat": -34.544503, "lon": -58.459499, "altitude": 0.0, "address": "Miguel Sanchez y Av Libertadores", "post_code": "1111", "capacity": 24, "is_charging_station": false, "rental_methods": ["KEY", "TRANSITCARD", "PHONE"], "groups": ["Nu\u00f1ez"], "obcn": "", "nearby_distance": 1000.0, "_ride_code_support": true, "rental_uris": {}}, {"station_id": "436", "name": "253 - Plaza Colegiales", "physical_configuration": "SMARTLITMAPFRAME", "lat": -34.57653, "lon": -58.44349, "altitude": 1.0, "address": "Tte. Benjamin Matienzo 2886", "post_code": "C1426", "capacity": 16, "is_charging_station": false, "rental_methods": ["KEY", "TRANSITCARD", "PHONE"], "groups": ["PALERMO"], "obcn": "", "nearby_distance": 1000.0, "_ride_code_support": true, "rental_uris": {}}, {"station_id": "440", "name": "142 - ARMENIA", "physical_configuration": "SMARTLITMAPFRAME", "lat": -34.5906475, "lon": -58.42889899999999, "altitude": 0.0, "address": "ARMENIA 1525 y GORRITI", "post_code": "C1414", "capacity": 16, "is_charging_station": false, "rental_methods": ["KEY", "TRANSITCARD", "PHONE"], "groups": ["PALERMO"], "obcn": ".", "nearby_distance": 1000.0, "_ride_code_support": true, "rental_uris": {}}, {"station_id": "441", "name": "016 - Legislatura", "physical_configuration": "SMARTLITMAPFRAME", "lat": -34.609801, "lon": -58.3748, "altitude": 0.0, "address": "169 Peru & Roca, Julio A., Presidente Diagonal Sur Av.", "post_code": "1111", "capacity": 20, "is_charging_station": false, "rental_methods": ["KEY", "TRANSITCARD", "PHONE"], "groups": ["MONSERRAT"], "obcn": "", "nearby_distance": 1609.34, "_ride_code_support": true, "rental_uris": {}}, {"station_id": "444", "name": "061 - Ministerio de Economia", "physical_configuration": "SMARTLITMAPFRAME", "lat": -34.608936, "lon": -58.370716, "altitude": 0.0, "address": "Balcarce e Yrigoyen, Hipolito Av.", "post_code": "1111", "capacity": 24, "is_charging_station": false, "rental_methods": ["KEY", "TRANSITCARD", "PHONE"], "groups": ["SAN NICOLAS"], "obcn": "", "nearby_distance": 1000.0, "_ride_code_support": true, "rental_uris": {}}, {"station_id": "448", "name": "393 - Barrio 31", "physical_configuration": "SMARTLITMAPFRAME", "lat": -34.58209, "lon": -58.3788, "altitude": 0.0, "address": "Islas Gal\u00e1pagos 2800", "post_code": "1111", "capacity": 32, "is_charging_station": false, "rental_methods": ["KEY", "TRANSITCARD", "PHONE"], "groups": ["RETIRO"], "obcn": "", "nearby_distance": 1000.0, "_ride_code_support": true, "rental_uris": {}}, {"station_id": "449", "name": "352 - San Jose de Flores", "physical_configuration": "SMARTLITMAPFRAME", "lat": -34.62883578, "lon": -58.463297377, "altitude": 0.0, "address": "Av. Rivadavia 6955", "post_code": "1111", "capacity": 24, "is_charging_station": false, "rental_methods": ["KEY", "TRANSITCARD", "PHONE"], "groups": ["FLORES"], "obcn": "", "nearby_distance": 1000.0, "_ride_code_support": true, "rental_uris": {}}, {"station_id": "453", "name": "028 - Plaza de la Bandera", "physical_configuration": "SMARTLITMAPFRAME", "lat": -34.6294802, "lon": -58.49448539999999, "altitude": 0.0, "address": "Av. Gaona 5181", "post_code": "C1407", "capacity": 20, "is_charging_station": false, "rental_methods": ["KEY", "TRANSITCARD", "PHONE"], "groups": ["VELEZ SARFIELD"], "obcn": "", "nearby_distance": 1000.0, "_ride_code_support": true, "rental_uris": {}}, {"station_id": "454", "name": "176 - Plaza Derechos del hombre", "physical_configuration": "SMARTLITMAPFRAME", "lat": -34.63403, "lon": -58.50694, "altitude": 0.0, "address": "CORTINA 551", "post_code": "11111", "capacity": 12, "is_charging_station": false, "rental_methods": ["KEY", "TRANSITCARD", "PHONE"], "groups": ["VILLA LURO"], "obcn": "", "nearby_distance": 1000.0, "_ride_code_support": true, "rental_uris": {}}, {"station_id": "455", "name": "039 - Plaza Don Bosco", "physical_configuration": "REGULARLITMAPFRAME", "lat": -34.62652, "lon": -58.50805, "altitude": 0.0, "address": "Elpidio Gonzalez 5181", "post_code": "11111", "capacity": 16, "is_charging_station": false, "rental_methods": ["KEY", "TRANSITCARD", "CREDITCARD", "PHONE"], "groups": ["VERSALLES"], "obcn": "", "nearby_distance": 1000.0, "_ride_code_support": true, "rental_uris": {}}, {"station_id": "457", "name": "110 - PLAZA CD DE BANFF", "physical_configuration": "REGULARLITMAPFRAME", "lat": -34.62805, "lon": -58.52174, "altitude": 0.0, "address": "ROMA 786", "post_code": "11111", "capacity": 16, "is_charging_station": false, "rental_methods": ["KEY", "TRANSITCARD", "CREDITCARD", "PHONE"], "groups": ["VERSALLES"], "obcn": "", "nearby_distance": 1000.0, "_ride_code_support": true, "rental_uris": {}}, {"station_id": "458", "name": "219 - Parque Chacabuco II", "physical_configuration": "REGULARLITMAPFRAME", "lat": -34.63642574842393, "lon": -58.44400690036916, "altitude": 0.0, "address": "AV. ASAMBLEA 1400", "post_code": "11111", "capacity": 28, "is_charging_station": false, "rental_methods": ["KEY", "TRANSITCARD", "CREDITCARD", "PHONE"], "groups": ["PARQUE CHACABUCO"], "obcn": "", "nearby_distance": 1000.0, "_ride_code_support": true, "rental_uris": {}}, {"station_id": "460", "name": "133 - BEIRO Y SEGUROLA", "physical_configuration": "SMARTLITMAPFRAME", "lat": -34.6075, "lon": -58.51193, "altitude": 0.0, "address": "Segurola 3194", "post_code": "11111", "capacity": 16, "is_charging_station": false, "rental_methods": ["KEY", "TRANSITCARD", "PHONE"], "groups": ["VILLA DEVOTO"], "obcn": "", "nearby_distance": 1000.0, "_ride_code_support": true, "rental_uris": {}}, {"station_id": "461", "name": "106 - MOSCONI Y CONSTITUYENTES", "physical_configuration": "SMARTLITMAPFRAME", "lat": -34.58088, "lon": -58.49363, "altitude": 0.0, "address": "CONSTITUYENTES 4710", "post_code": "1111", "capacity": 20, "is_charging_station": false, "rental_methods": ["KEY", "TRANSITCARD", "PHONE"], "groups": ["PARQUE CHAS"], "obcn": "", "nearby_distance": 1000.0, "_ride_code_support": true, "rental_uris": {}}, {"station_id": "464", "name": "377 - CIUDAD UNIVERSITARIA III", "physical_configuration": "SMARTLITMAPFRAME", "lat": -34.541, "lon": -58.4441, "altitude": 0.0, "address": "Intendente Guiraldes 2160 - Pabell\u00f3n III", "post_code": "1111", "capacity": 28, "is_charging_station": false, "rental_methods": ["KEY", "TRANSITCARD", "PHONE"], "groups": ["BELGRANO"], "obcn": "", "nearby_distance": 1000.0, "_ride_code_support": true, "rental_uris": {}}, {"station_id": "465", "name": "192 - HOSPITAL SIRIO", "physical_configuration": "SMARTLITMAPFRAME", "lat": -34.5904625, "lon": -58.5071166, "altitude": 0.0, "address": "Gabriela Mistral 3325 y Campana", "post_code": "C1419", "capacity": 12, "is_charging_station": false, "rental_methods": ["KEY", "TRANSITCARD", "PHONE"], "groups": ["VILLA DEVOTO"], "obcn": "", "nearby_distance": 1000.0, "_ride_code_support": true, "rental_uris": {}}, {"station_id": "466", "name": "333 - PARQUE DE LA ESTACI\u00d3N", "physical_configuration": "SMARTLITMAPFRAME", "lat": -34.608096, "lon": -58.41183969999999, "altitude": 0.0, "address": "Dr. Tom\u00e1s Manuel de Anchorena 170", "post_code": "C1170", "capacity": 20, "is_charging_station": false, "rental_methods": ["KEY", "TRANSITCARD", "PHONE"], "groups": ["ALMAGRO"], "obcn": "", "nearby_distance": 1000.0, "_ride_code_support": true, "rental_uris": {}}, {"station_id": "467", "name": "328 - SARMIENTO II", "physical_configuration": "SMARTLITMAPFRAME", "lat": -34.6055135, "lon": -58.3958925, "altitude": 0.0, "address": "Sarmiento 2037", "post_code": "C1044", "capacity": 12, "is_charging_station": false, "rental_methods": ["KEY", "TRANSITCARD", "PHONE"], "groups": ["BALVANERA"], "obcn": "", "nearby_distance": 1000.0, "_ride_code_support": true, "rental_uris": {}}, {"station_id": "468", "name": "084 - TEATRO PICADERO", "physical_configuration": "SMARTLITMAPFRAME", "lat": -34.6042288, "lon": -58.3937375, "altitude": 0.0, "address": "Riobamba 403", "post_code": "1111", "capacity": 8, "is_charging_station": false, "rental_methods": ["KEY", "TRANSITCARD", "PHONE"], "groups": ["BALVANERA"], "obcn": "", "nearby_distance": 1000.0, "_ride_code_support": true, "rental_uris": {}}, {"station_id": "469", "name": "062 - PARQUE ONEGA", "physical_configuration": "SMARTLITMAPFRAME", "lat": -34.5934185, "lon": -58.513837, "altitude": 0.0, "address": "Av. Gral.Mosconi 3780", "post_code": "C1419", "capacity": 16, "is_charging_station": false, "rental_methods": ["KEY", "TRANSITCARD", "PHONE"], "groups": ["VILLA DEVOTO"], "obcn": "", "nearby_distance": 1000.0, "_ride_code_support": true, "rental_uris": {}}, {"station_id": "471", "name": "173 - EL LIBERTADOR", "physical_configuration": "SMARTLITMAPFRAME", "lat": -34.5947293, "lon": -58.5033086, "altitude": 0.0, "address": "Av. San Mart\u00edn 6220", "post_code": "C1419", "capacity": 12, "is_charging_station": false, "rental_methods": ["KEY", "TRANSITCARD", "PHONE"], "groups": ["VILLA DEVOTO"], "obcn": "", "nearby_distance": 1000.0, "_ride_code_support": true, "rental_uris": {}}, {"station_id": "472", "name": "310 - FREIRE II", "physical_configuration": "SMARTLITMAPFRAME", "lat": -34.5751286, "lon": -58.45275609999999, "altitude": 0.0, "address": "Tte. Gral Ram\u00f3n Freire 1003", "post_code": "C1426", "capacity": 16, "is_charging_station": false, "rental_methods": ["KEY", "TRANSITCARD", "PHONE"], "groups": ["COLEGIALES"], "obcn": "", "nearby_distance": 1000.0, "_ride_code_support": true, "rental_uris": {}}, {"station_id": "473", "name": "216 - EMILIO LAMARCA", "physical_configuration": "SMARTLITMAPFRAME", "lat": -34.6134032, "lon": -58.4933583, "altitude": 0.0, "address": "EMILIO LAMARCA 2066", "post_code": "C1407", "capacity": 12, "is_charging_station": false, "rental_methods": ["KEY", "TRANSITCARD", "PHONE"], "groups": ["VILLA SANTA RITA"], "obcn": "", "nearby_distance": 1000.0, "_ride_code_support": true, "rental_uris": {}}, {"station_id": "474", "name": "224 - BAIGORRIA", "physical_configuration": "SMARTLITMAPFRAME", "lat": -34.6108915, "lon": -58.50301999999999, "altitude": 0.0, "address": "Baigorria 4101", "post_code": "C1417", "capacity": 16, "is_charging_station": false, "rental_methods": ["KEY", "TRANSITCARD", "PHONE"], "groups": ["MONTE CASTRO"], "obcn": "", "nearby_distance": 1000.0, "_ride_code_support": true, "rental_uris": {}}, {"station_id": "475", "name": "238 - PLAZA LAS TOSCANERAS", "physical_configuration": "SMARTLITMAPFRAME", "lat": -34.6165412, "lon": -58.5260181, "altitude": 0.0, "address": "Ram\u00f3n Lista 5500 (y Moliere)", "post_code": "1111", "capacity": 12, "is_charging_station": false, "rental_methods": ["KEY", "TRANSITCARD", "PHONE"], "groups": ["VILLA LURO"], "obcn": "", "nearby_distance": 1000.0, "_ride_code_support": true, "rental_uris": {}}, {"station_id": "476", "name": "279 - PLAZA MONTE CASTRO", "physical_configuration": "SMARTLITMAPFRAME", "lat": -34.6182924, "lon": -58.4985253, "altitude": 0.0, "address": "Gualeguaych\u00fa 1900", "post_code": "1111", "capacity": 12, "is_charging_station": false, "rental_methods": ["KEY", "TRANSITCARD", "PHONE"], "groups": ["MONTE CASTRO"], "obcn": "", "nearby_distance": 1000.0, "_ride_code_support": true, "rental_uris": {}}, {"station_id": "477", "name": "311 - SEC. DE INNOVACION Y TRANSFORMACI\u00d3N", "physical_configuration": "SMARTLITMAPFRAME", "lat": -34.6350046, "lon": -58.39505390000001, "altitude": 0.0, "address": "Av. Caseros 2309", "post_code": "C1264", "capacity": 12, "is_charging_station": false, "rental_methods": ["KEY", "TRANSITCARD", "PHONE"], "groups": ["PARQUE PATRICIOS"], "obcn": "", "nearby_distance": 1000.0, "_ride_code_support": true, "rental_uris": {}}, {"station_id": "478", "name": "015 - AMENABAR", "physical_configuration": "SMARTLITMAPFRAME", "lat": -34.572056, "lon": -58.44752359999999, "altitude": 0.0, "address": "Teodoro Garc\u00eda 2613", "post_code": "C1426", "capacity": 12, "is_charging_station": false, "rental_methods": ["KEY", "TRANSITCARD", "PHONE"], "groups": ["COLEGIALES"], "obcn": "", "nearby_distance": 1000.0, "_ride_code_support": true, "rental_uris": {}}, {"station_id": "479", "name": "347 - CARABOBO", "physical_configuration": "SMARTLITMAPFRAME", "lat": -34.6262877, "lon": -58.45530009999999, "altitude": 0.0, "address": "Pumacahua 9", "post_code": "1111", "capacity": 24, "is_charging_station": false, "rental_methods": ["KEY", "TRANSITCARD", "PHONE"], "groups": ["CABALLITO"], "obcn": "", "nearby_distance": 1000.0, "_ride_code_support": true, "rental_uris": {}}, {"station_id": "480", "name": "353 - PLAZA V\u00c9LEZ SARSFIELD", "physical_configuration": "SMARTLITMAPFRAME", "lat": -34.6293335, "lon": -58.4836028, "altitude": 0.0, "address": "Chivilcoy 400", "post_code": "C1407", "capacity": 12, "is_charging_station": false, "rental_methods": ["KEY", "TRANSITCARD", "PHONE"], "groups": ["FLORESTA"], "obcn": "", "nearby_distance": 1000.0, "_ride_code_support": true, "rental_uris": {}}, {"station_id": "481", "name": "369 - PLAZA LARRAZABAL", "physical_configuration": "SMARTLITMAPFRAME", "lat": -34.6430378, "lon": -58.5127001, "altitude": 0.0, "address": "AV. LARRAZABAL 380", "post_code": "C1408", "capacity": 16, "is_charging_station": false, "rental_methods": ["KEY", "TRANSITCARD", "PHONE"], "groups": ["LINIERS"], "obcn": "", "nearby_distance": 1000.0, "_ride_code_support": true, "rental_uris": {}}, {"station_id": "482", "name": "376 - PASEO DE LA COSTANERA", "physical_configuration": "SMARTLITMAPFRAME", "lat": -34.550468, "lon": -58.430024, "altitude": 0.0, "address": "Av. Costanera Rafael Obligado 6200", "post_code": "1111", "capacity": 12, "is_charging_station": false, "rental_methods": ["KEY", "TRANSITCARD", "PHONE"], "groups": ["PALERMO"], "obcn": "", "nearby_distance": 1000.0, "_ride_code_support": true, "rental_uris": {}}, {"station_id": "483", "name": "175 - PLAZA MACKENNA", "physical_configuration": "SMARTLITMAPFRAME", "lat": -34.5436888, "lon": -58.4771259, "altitude": 0.0, "address": "CRAMER 4500", "post_code": "C1429", "capacity": 12, "is_charging_station": false, "rental_methods": ["KEY", "TRANSITCARD", "PHONE"], "groups": ["SAAVEDRA"], "obcn": "", "nearby_distance": 1000.0, "_ride_code_support": true, "rental_uris": {}}, {"station_id": "484", "name": "295 - SUPER\u00cd", "physical_configuration": "SMARTLITMAPFRAME", "lat": -34.5554843, "lon": -58.4768041, "altitude": 0.0, "address": "NU\u00d1EZ 3486", "post_code": "1111", "capacity": 12, "is_charging_station": false, "rental_methods": ["KEY", "TRANSITCARD", "PHONE"], "groups": ["SAAVEDRA"], "obcn": "", "nearby_distance": 1000.0, "_ride_code_support": true, "rental_uris": {}}, {"station_id": "485", "name": "230 - PASEO DE LA COSTANERA II", "physical_configuration": "SMARTMAPFRAME", "lat": -34.553465, "lon": -58.42144, "altitude": 0.0, "address": "Av. Costanera Rafael Obligado 5100", "post_code": "C1428", "capacity": 12, "is_charging_station": false, "rental_methods": ["KEY", "TRANSITCARD", "PHONE"], "groups": ["PALERMO"], "obcn": "", "nearby_distance": 1000.0, "_ride_code_support": true, "rental_uris": {}}, {"station_id": "486", "name": "220 - PLAZA FELIX LIMA", "physical_configuration": "SMARTLITMAPFRAME", "lat": -34.5420905, "lon": -58.47056989999999, "altitude": 0.0, "address": "RAMALLO 2200", "post_code": "C1429", "capacity": 12, "is_charging_station": false, "rental_methods": ["KEY", "TRANSITCARD", "PHONE"], "groups": ["Nu\u00f1ez"], "obcn": "", "nearby_distance": 1000.0, "_ride_code_support": true, "rental_uris": {}}, {"station_id": "487", "name": "239 - AVENIDA CRAMER", "physical_configuration": "SMARTLITMAPFRAME", "lat": -34.55813699999999, "lon": -58.46725929999999, "altitude": 0.0, "address": "Av. Cramer 2900", "post_code": "C1428", "capacity": 12, "is_charging_station": false, "rental_methods": ["KEY", "TRANSITCARD", "PHONE"], "groups": ["BELGRANO"], "obcn": "", "nearby_distance": 1000.0, "_ride_code_support": true, "rental_uris": {}}, {"station_id": "488", "name": "234 - AVENIDA TRIUNVIRATO", "physical_configuration": "SMARTLITMAPFRAME", "lat": -34.5657087, "lon": -58.4952184, "altitude": 0.0, "address": "Av. Triunvirato 5752", "post_code": "1111", "capacity": 12, "is_charging_station": false, "rental_methods": ["KEY", "TRANSITCARD", "PHONE"], "groups": ["VILLA URQUIZA"], "obcn": "", "nearby_distance": 1000.0, "_ride_code_support": true, "rental_uris": {}}, {"station_id": "489", "name": "288 - SECRETAR\u00cdA DE DEPORTES", "physical_configuration": "SMARTLITMAPFRAME", "lat": -34.5476039, "lon": -58.4565662, "altitude": 0.0, "address": "AV LIBERTADOR 7100", "post_code": "C1429", "capacity": 16, "is_charging_station": false, "rental_methods": ["KEY", "TRANSITCARD", "PHONE"], "groups": ["BELGRANO"], "obcn": "", "nearby_distance": 1000.0, "_ride_code_support": true, "rental_uris": {}}, {"station_id": "490", "name": "245 - COSTANERA NORTE", "physical_configuration": "SMARTLITMAPFRAME", "lat": -34.56477054, "lon": -58.402021, "altitude": 0.0, "address": "AV. Costanera Rafael del Obligado 1700", "post_code": "C1425", "capacity": 16, "is_charging_station": false, "rental_methods": ["KEY", "TRANSITCARD", "PHONE"], "groups": ["PALERMO"], "obcn": "", "nearby_distance": 1000.0, "_ride_code_support": true, "rental_uris": {}}, {"station_id": "491", "name": "266 - PLAZA SABATTINI", "physical_configuration": "SMARTLITMAPFRAME", "lat": -34.6122963, "lon": -58.44329500000001, "altitude": 0.0, "address": "COLPAYO 699", "post_code": "C1405", "capacity": 8, "is_charging_station": false, "rental_methods": ["KEY", "TRANSITCARD", "PHONE"], "groups": ["CABALLITO"], "obcn": "", "nearby_distance": 1000.0, "_ride_code_support": true, "rental_uris": {}}, {"station_id": "492", "name": "325 - MEDRANO", "physical_configuration": "SMARTLITMAPFRAME", "lat": -34.6097105, "lon": -58.4215633, "altitude": 0.0, "address": "3905 Bartolom\u00e9 Mitre", "post_code": "B1678", "capacity": 20, "is_charging_station": false, "rental_methods": ["KEY", "TRANSITCARD", "PHONE"], "groups": ["ALMAGRO"], "obcn": "", "nearby_distance": 1000.0, "_ride_code_support": true, "rental_uris": {}}, {"station_id": "493", "name": "208 - NICASIO ORO\u00d1O", "physical_configuration": "SMARTLITMAPFRAME", "lat": -34.5967435, "lon": -58.4594031, "altitude": 0.0, "address": "Nicasio Oro\u00f1o 2598", "post_code": "C1416", "capacity": 8, "is_charging_station": false, "rental_methods": ["KEY", "TRANSITCARD", "PHONE"], "groups": ["PATERNAL"], "obcn": "", "nearby_distance": 1000.0, "_ride_code_support": true, "rental_uris": {}}, {"station_id": "494", "name": "314 - ALLENDE", "physical_configuration": "SMARTLITMAPFRAME", "lat": -34.6147875, "lon": -58.5116722, "altitude": 0.0, "address": "Allende 2794", "post_code": "C1417", "capacity": 12, "is_charging_station": false, "rental_methods": ["KEY", "TRANSITCARD", "PHONE"], "groups": ["VILLA DEVOTO"], "obcn": "", "nearby_distance": 1000.0, "_ride_code_support": true, "rental_uris": {}}, {"station_id": "496", "name": "052 - CAMPANA II", "physical_configuration": "REGULARLITMAPFRAME", "lat": -34.5831596, "lon": -58.5131664, "altitude": 0.0, "address": "Cochrane 3298 (y Campana)", "post_code": "1111", "capacity": 12, "is_charging_station": false, "rental_methods": ["KEY", "TRANSITCARD", "CREDITCARD", "PHONE"], "groups": ["VILLA PUYRREDON"], "obcn": "", "nearby_distance": 1000.0, "_ride_code_support": true, "rental_uris": {}}, {"station_id": "497", "name": "307 - CERRETTI", "physical_configuration": "SMARTLITMAPFRAME", "lat": -34.5744245, "lon": -58.4962318, "altitude": 0.0, "address": "Ceretti 2892", "post_code": "C1431", "capacity": 10, "is_charging_station": false, "rental_methods": ["KEY", "TRANSITCARD", "PHONE"], "groups": ["VILLA URQUIZA"], "obcn": "", "nearby_distance": 1000.0, "_ride_code_support": true, "rental_uris": {}}, {"station_id": "498", "name": "055 - HABANA", "physical_configuration": "SMARTLITMAPFRAME", "lat": -34.5865976, "lon": -58.4949585, "altitude": 0.0, "address": "Gral. Jos\u00e9 Gervasio Artigas 4298 (y Habana)", "post_code": "C1419", "capacity": 12, "is_charging_station": false, "rental_methods": ["KEY", "TRANSITCARD", "PHONE"], "groups": ["VILLA PUYRREDON"], "obcn": "", "nearby_distance": 1000.0, "_ride_code_support": true, "rental_uris": {}}, {"station_id": "499", "name": "286 - FILOSOFIA Y LETRAS", "physical_configuration": "SMARTLITMAPFRAME", "lat": -34.628556350908276, "lon": -58.4468139680066, "altitude": 0.0, "address": "Jos\u00e9 Bonifacio 1407", "post_code": "C1406", "capacity": 16, "is_charging_station": false, "rental_methods": ["KEY", "TRANSITCARD", "PHONE"], "groups": ["CABALLITO"], "obcn": "", "nearby_distance": 1000.0, "_ride_code_support": true, "rental_uris": {}}, {"station_id": "500", "name": "235 - COMUNA 13", "physical_configuration": "SMARTLITMAPFRAME", "lat": -34.5532117, "lon": -58.46422429999999, "altitude": 0.0, "address": "Ibera 2377", "post_code": "C1429", "capacity": 16, "is_charging_station": false, "rental_methods": ["KEY", "TRANSITCARD", "PHONE"], "groups": ["Nu\u00f1ez"], "obcn": "", "nearby_distance": 999.0, "_ride_code_support": true, "rental_uris": {}}, {"station_id": "501", "name": "020 - GRECIA", "physical_configuration": "SMARTLITMAPFRAME", "lat": -34.5492488, "lon": -58.46194079999999, "altitude": 0.0, "address": "Grecia 3290", "post_code": "C1429", "capacity": 16, "is_charging_station": false, "rental_methods": ["KEY", "TRANSITCARD", "PHONE"], "groups": ["Nu\u00f1ez"], "obcn": "", "nearby_distance": 1000.0, "_ride_code_support": true, "rental_uris": {}}, {"station_id": "502", "name": "296 - SAN ISIDRO LABRADOR", "physical_configuration": "SMARTLITMAPFRAME", "lat": -34.5406752, "lon": -58.4752251, "altitude": 0.0, "address": "Av. San Isidro Labrador 4850", "capacity": 16, "is_charging_station": false, "rental_methods": ["KEY", "TRANSITCARD", "PHONE"], "groups": ["SAAVEDRA"], "obcn": "", "nearby_distance": 999.0, "_ride_code_support": true, "rental_uris": {}}, {"station_id": "504", "name": "214 - MOR\u00d3N", "physical_configuration": "SMARTLITMAPFRAME", "lat": -34.6247196, "lon": -58.47518040000001, "altitude": 0.0, "address": "Mor\u00f3n 3089", "post_code": "C1406", "capacity": 12, "is_charging_station": false, "rental_methods": ["KEY", "TRANSITCARD", "PHONE"], "groups": ["FLORES"], "obcn": "", "nearby_distance": 1000.0, "_ride_code_support": true, "rental_uris": {}}, {"station_id": "505", "name": "337 - AV. J. B. JUSTO", "physical_configuration": "SMARTLITMAPFRAME", "lat": -34.6226411, "lon": -58.48202029999999, "altitude": 0.0, "address": "Emilio Lamarca 915 (y Av. Juan B. Justo)", "post_code": "C1407", "capacity": 15, "is_charging_station": false, "rental_methods": ["KEY", "TRANSITCARD", "PHONE"], "groups": ["VILLA SANTA RITA"], "obcn": "", "nearby_distance": 1000.0, "_ride_code_support": true, "rental_uris": {}}, {"station_id": "506", "name": "040 - PARQUE SALGUERO", "physical_configuration": "SMARTLITMAPFRAME", "lat": -34.569435, "lon": -58.399369, "altitude": 0.0, "address": "Av. Costa Salguero 1222", "post_code": "C1425", "capacity": 20, "is_charging_station": false, "rental_methods": ["KEY", "TRANSITCARD", "PHONE"], "groups": ["PALERMO"], "obcn": "", "nearby_distance": 1000.0, "_ride_code_support": true, "rental_uris": {}}, {"station_id": "507", "name": "271 - VILLA SOLDATI II", "physical_configuration": "SMARTLITMAPFRAME", "lat": -34.673248, "lon": -58.45531939999999, "altitude": 0.0, "address": "23 de junio 4249", "capacity": 24, "is_charging_station": false, "rental_methods": ["KEY", "TRANSITCARD", "PHONE"], "groups": ["VILLA SOLDATI"], "obcn": "", "nearby_distance": 1000.0, "_ride_code_support": true, "rental_uris": {}}, {"station_id": "508", "name": "170 - RAFAELA", "physical_configuration": "SMARTLITMAPFRAME", "lat": -34.6391718, "lon": -58.4947858, "altitude": 0.0, "address": "Rafaela 4811", "post_code": "C1407", "capacity": 12, "is_charging_station": false, "rental_methods": ["KEY", "TRANSITCARD", "PHONE"], "groups": ["VILLA LURO"], "obcn": "", "nearby_distance": 1000.0, "_ride_code_support": true, "rental_uris": {}}, {"station_id": "509", "name": "386 - VELEZ SARSFIELD", "physical_configuration": "SMARTLITMAPFRAME", "lat": -34.6336384, "lon": -58.48981, "altitude": 0.0, "address": "Av. Carrasco 214", "post_code": "C1407", "capacity": 12, "is_charging_station": false, "rental_methods": ["KEY", "TRANSITCARD", "PHONE"], "groups": ["VELEZ SARFIELD"], "obcn": "", "nearby_distance": 1000.0, "_ride_code_support": true, "rental_uris": {}}, {"station_id": "511", "name": "284 - AV. FOREST", "physical_configuration": "SMARTLITMAPFRAME", "lat": -34.575441, "lon": -58.462689, "altitude": 0.0, "address": "Delgado 1569 (y Av. Forest)", "post_code": "C1430", "capacity": 16, "is_charging_station": false, "rental_methods": ["KEY", "TRANSITCARD", "PHONE"], "groups": ["VILLA ORTUZAR"], "obcn": "", "nearby_distance": 1000.0, "_ride_code_support": true, "rental_uris": {}}, {"station_id": "512", "name": "195 - PARQUE CHAS", "physical_configuration": "SMARTLITMAPFRAME", "lat": -34.5816148, "lon": -58.4750569, "altitude": 0.0, "address": "Av. De los Incas 4535", "post_code": "C1427", "capacity": 20, "is_charging_station": false, "rental_methods": ["KEY", "TRANSITCARD", "PHONE"], "groups": ["PARQUE CHAS"], "obcn": "", "nearby_distance": 1000.0, "_ride_code_support": true, "rental_uris": {}}, {"station_id": "513", "name": "308 - SAN MARTIN II", "physical_configuration": "SMARTLITMAPFRAME", "lat": -34.5971297, "lon": -58.490739, "altitude": 0.0, "address": "Av. San Mart\u00edn 5129", "capacity": 12, "is_charging_station": false, "rental_methods": ["KEY", "TRANSITCARD", "PHONE"], "groups": ["AGRONOMIA"], "obcn": "", "nearby_distance": 1000.0, "_ride_code_support": true, "rental_uris": {}}, {"station_id": "515", "name": "294 - PLAZOLETA R\u00cdO DE LA PLATA", "physical_configuration": "SMARTLITMAPFRAME", "lat": -34.57424606980564, "lon": -58.41465533223049, "altitude": 0.0, "address": "Av. Sarmiento 500", "capacity": 16, "is_charging_station": false, "rental_methods": ["KEY", "TRANSITCARD", "PHONE"], "groups": ["PALERMO"], "obcn": "", "nearby_distance": 1000.0, "_ride_code_support": true, "rental_uris": {}}, {"station_id": "516", "name": "368 - PLAZA DE LA SHO\u00c1", "physical_configuration": "SMARTLITMAPFRAME", "lat": -34.5709984, "lon": -58.4233469, "altitude": 0.0, "address": "Av. Del Libertador 3899", "capacity": 20, "is_charging_station": false, "rental_methods": ["KEY", "TRANSITCARD", "PHONE"], "groups": ["PALERMO"], "obcn": "", "nearby_distance": 1000.0, "_ride_code_support": true, "rental_uris": {}}, {"station_id": "517", "name": "332 - PAC\u00cdFICO II", "physical_configuration": "SMARTLITMAPFRAME", "lat": -34.5745008, "lon": -58.42481399999999, "altitude": 0.0, "address": "Av. Int. Bullrich 300", "capacity": 16, "is_charging_station": false, "rental_methods": ["KEY", "TRANSITCARD", "PHONE"], "groups": ["PALERMO"], "obcn": "", "nearby_distance": 1000.0, "_ride_code_support": true, "rental_uris": {}}, {"station_id": "518", "name": "329 - LAS CA\u00d1ITAS", "physical_configuration": "SMARTLITMAPFRAME", "lat": -34.5738986, "lon": -58.43178200000001, "altitude": 0.0, "address": "Clay 2818", "post_code": "C1426", "capacity": 12, "is_charging_station": false, "rental_methods": ["KEY", "TRANSITCARD", "PHONE"], "groups": ["PALERMO"], "obcn": "", "nearby_distance": 1000.0, "_ride_code_support": true, "rental_uris": {}}, {"station_id": "519", "name": "053 - AV. DEL LIBERTADOR ", "physical_configuration": "SMARTLITMAPFRAME", "lat": -34.59291496187579, "lon": -58.3754427116394, "altitude": 0.0, "address": "Av. Del Libertador 100", "capacity": 20, "is_charging_station": false, "rental_methods": ["KEY", "TRANSITCARD", "PHONE"], "groups": ["RETIRO"], "obcn": "", "nearby_distance": 1000.0, "_ride_code_support": true, "rental_uris": {}}, {"station_id": "520", "name": "180 - PARQUE OLIMPICO", "physical_configuration": "SMARTLITMAPFRAME", "lat": -34.67263155698435, "lon": -58.445517873322615, "altitude": 0.0, "address": "Av. Coronel Roca 5252 (dentro del Parque Ol\u00edmpico). ", "post_code": "C1437", "capacity": 20, "is_charging_station": false, "rental_methods": ["KEY", "TRANSITCARD", "PHONE"], "groups": ["VILLA SOLDATI"], "obcn": "", "nearby_distance": 1000.0, "_ride_code_support": true, "rental_uris": {}}, {"station_id": "521", "name": "226 - AV. WARNES", "physical_configuration": "SMARTLITMAPFRAME", "lat": -34.59646530000001, "lon": -58.4663841, "altitude": 0.0, "address": "Av. Warnes 2150", "post_code": "C1427", "capacity": 16, "is_charging_station": false, "rental_methods": ["KEY", "TRANSITCARD", "PHONE"], "groups": ["PATERNAL"], "obcn": "", "nearby_distance": 1000.0, "_ride_code_support": true, "rental_uris": {}}, {"station_id": "522", "name": "119 - PLAZOLETA BENEDIT", "physical_configuration": "SMARTLITMAPFRAME", "lat": -34.6022435, "lon": -58.4425482, "altitude": 0.0, "address": "Av. Warnes y Av. R. Scalabrini Ortiz", "capacity": 16, "is_charging_station": false, "rental_methods": ["KEY", "TRANSITCARD", "PHONE"], "groups": ["VILLA CRESPO"], "obcn": "", "nearby_distance": 1000.0, "_ride_code_support": true, "rental_uris": {}}, {"station_id": "524", "name": "338 - AV. CABILDO", "physical_configuration": "SMARTLITMAPFRAME", "lat": -34.557933, "lon": -58.4607027, "altitude": 0.0, "address": "Av. Cabildo 2586", "post_code": "C1428", "capacity": 12, "is_charging_station": false, "rental_methods": ["KEY", "TRANSITCARD", "PHONE"], "groups": ["BELGRANO"], "obcn": "", "nearby_distance": 1000.0, "_ride_code_support": true, "rental_uris": {}}, {"station_id": "525", "name": "317 - ESCUELA RAGGIO", "physical_configuration": "SMARTLITMAPFRAME", "lat": -34.536691, "lon": -58.4668133, "altitude": 0.0, "address": "Av. Libertador 8620 (y Pico)", "post_code": "C1429", "capacity": 16, "is_charging_station": false, "rental_methods": ["KEY", "TRANSITCARD", "PHONE"], "groups": ["Nu\u00f1ez"], "obcn": "", "nearby_distance": 1000.0, "_ride_code_support": true, "rental_uris": {}}, {"station_id": "526", "name": "088 - NU\u00d1EZ ", "physical_configuration": "SMARTLITMAPFRAME", "lat": -34.54162804074317, "lon": -58.46340407324712, "altitude": 0.0, "address": "Comodoro Mart\u00edn Rivadavia 1630", "post_code": "C1429", "capacity": 12, "is_charging_station": false, "rental_methods": ["KEY", "TRANSITCARD", "PHONE"], "groups": ["Nu\u00f1ez"], "obcn": "", "nearby_distance": 1000.0, "_ride_code_support": true, "rental_uris": {}}, {"station_id": "527", "name": "068 - AV. CORDOBA", "physical_configuration": "SMARTLITMAPFRAME", "lat": -34.588727, "lon": -58.43838599999999, "altitude": 0.0, "address": "Av. Cordoba 5403", "capacity": 10, "is_charging_station": false, "rental_methods": ["KEY", "TRANSITCARD", "PHONE"], "groups": ["VILLA CRESPO"], "obcn": "", "nearby_distance": 1000.0, "_ride_code_support": true, "rental_uris": {}}, {"station_id": "528", "name": "042 - Skate Park Villa Luro", "physical_configuration": "SMARTLITMAPFRAME", "lat": -34.6367055, "lon": -58.49528569999999, "altitude": 0.0, "address": " Av. Rivadavia 9301", "post_code": "C1407", "capacity": 16, "is_charging_station": false, "rental_methods": ["KEY", "TRANSITCARD", "PHONE"], "groups": ["VILLA LURO"], "obcn": "", "nearby_distance": 1000.0, "_ride_code_support": true, "rental_uris": {}}, {"station_id": "529", "name": "011 - RIO DE JANEIRO", "physical_configuration": "SMARTLITMAPFRAME", "lat": -34.61325931284073, "lon": -58.43011879451216, "altitude": 0.0, "address": "R\u00edo de Janeiro 205", "post_code": "C1405", "capacity": 17, "is_charging_station": false, "rental_methods": ["KEY", "TRANSITCARD", "PHONE"], "groups": ["ALMAGRO"], "obcn": "", "nearby_distance": 1000.0, "_ride_code_support": true, "rental_uris": {}}, {"station_id": "530", "name": "031 - PARQUE RIVADAVIA", "physical_configuration": "SMARTLITMAPFRAME", "lat": -34.61651103390999, "lon": -58.43235024128228, "altitude": 0.0, "address": "Av Rivadavia 4950", "post_code": "C1424", "capacity": 20, "is_charging_station": false, "rental_methods": ["KEY", "TRANSITCARD", "PHONE"], "groups": ["CABALLITO"], "obcn": "", "nearby_distance": 1000.0, "_ride_code_support": true, "rental_uris": {}}, {"station_id": "531", "name": "048 - JOSE AMALFITANI", "physical_configuration": "SMARTLITMAPFRAME", "lat": -34.63362230949344, "lon": -58.52125773107453, "altitude": 0.0, "address": "Av. Juan Bautista Justo 6383", "post_code": "C1407", "capacity": 20, "is_charging_station": false, "rental_methods": ["KEY", "TRANSITCARD", "PHONE"], "groups": ["VERSALLES"], "obcn": "", "nearby_distance": 1000.0, "_ride_code_support": true, "rental_uris": {}}, {"station_id": "532", "name": "072 - INSTITUTO POLIT\u00c9CNICO MODELO", "physical_configuration": "SMARTLITMAPFRAME", "lat": -34.573033051099245, "lon": -58.5039082871025, "altitude": 0.0, "address": "Av Constituyentes 5880", "post_code": "C1431", "capacity": 20, "is_charging_station": false, "rental_methods": ["KEY", "TRANSITCARD", "PHONE"], "groups": ["VILLA URQUIZA"], "obcn": "", "nearby_distance": 1000.0, "_ride_code_support": true, "rental_uris": {}}, {"station_id": "533", "name": "077 - CRISOLOGO LARRALDE", "physical_configuration": "SMARTLITMAPFRAME", "lat": -34.56119069896605, "lon": -58.4920304128975, "altitude": 0.0, "address": "Galv\u00e1n 3601", "capacity": 20, "is_charging_station": false, "rental_methods": ["KEY", "TRANSITCARD", "PHONE"], "groups": ["SAAVEDRA"], "obcn": "", "nearby_distance": 1000.0, "_ride_code_support": true, "rental_uris": {}}, {"station_id": "534", "name": "081 - PARQUE DE LAS CIENCIAS", "physical_configuration": "SMARTLITMAPFRAME", "lat": -34.5829625, "lon": -58.42997930000001, "altitude": 0.0, "address": "Soler 5300 ", "capacity": 24, "is_charging_station": false, "rental_methods": ["KEY", "TRANSITCARD", "PHONE"], "groups": ["PALERMO"], "obcn": "", "nearby_distance": 1000.0, "_ride_code_support": true, "rental_uris": {}}, {"station_id": "535", "name": "090 - HONORIO PUEYRREDON", "physical_configuration": "SMARTLITMAPFRAME", "lat": -34.60251720000001, "lon": -58.44965897301637, "altitude": 0.0, "address": "Honorio Pueyrred\u00f3n 1653", "post_code": "C1414", "capacity": 20, "is_charging_station": false, "rental_methods": ["KEY", "TRANSITCARD", "PHONE"], "groups": ["VILLA CRESPO"], "obcn": "", "nearby_distance": 1000.0, "_ride_code_support": true, "rental_uris": {}}, {"station_id": "536", "name": "019 - PLAZA  SAN MARTIN", "physical_configuration": "SMARTLITMAPFRAME", "lat": -34.5954737, "lon": -58.37748229999999, "altitude": 0.0, "address": "Av. Santa Fe 716", "post_code": "C1006", "capacity": 20, "is_charging_station": false, "rental_methods": ["KEY", "TRANSITCARD", "PHONE"], "groups": ["RETIRO"], "obcn": "", "nearby_distance": 1000.0, "_ride_code_support": true, "rental_uris": {}}, {"station_id": "537", "name": "389 - Av. ELCANO", "physical_configuration": "SMARTLITMAPFRAME", "lat": -34.57080828710083, "lon": -58.45806148960133, "altitude": 0.0, "address": "Av. ELCANO 3000", "post_code": "C1426", "capacity": 12, "is_charging_station": false, "rental_methods": ["KEY", "TRANSITCARD", "PHONE"], "groups": ["COLEGIALES"], "obcn": "", "nearby_distance": 1000.0, "_ride_code_support": true, "rental_uris": {}}, {"station_id": "538", "name": "047 - PARQUE DE LA INNOVACI\u00d3N", "physical_configuration": "SMARTLITMAPFRAME", "lat": -34.545091, "lon": -58.451432, "altitude": 0.0, "address": "Av. G. Udaondo 1146", "post_code": "C1428", "capacity": 16, "is_charging_station": false, "rental_methods": ["KEY", "TRANSITCARD", "PHONE"], "groups": ["Nu\u00f1ez"], "obcn": "", "nearby_distance": 1000.0, "_ride_code_support": true, "rental_uris": {}}]}}